state,city,lat,lon
Alabama,Huntsville,34.7823,-86.5326
Alabama,Birmingham,33.5272,-86.797
Alabama,Montgomery,32.3485,-86.2673
Alabama,Mobile,30.6684,-88.1002
Alabama,Tuscaloosa,33.2344,-87.5283
Alabama,Hoover,33.3769,-86.8056
Alabama,Auburn,32.6077,-85.4895
Alabama,Dothan,31.2337,-85.4068
Alabama,Decatur,34.573,-86.9899
Alabama,Madison,34.7105,-86.7623
Alabama,Florence,34.8303,-87.6661
Alabama,Vestavia Hills,33.4625,-86.7395
Alabama,Phenix City,32.4617,-85.025
Alabama,Prattville,32.449,-86.4494
Alabama,Gadsden,34.0066,-86.0161
Alabama,Alabaster,33.2444,-86.8474
Alabama,Northport,33.2576,-87.5964
Alabama,Opelika,32.6614,-85.3763
Alabama,Enterprise,31.3269,-85.844
Alabama,Daphne,30.6277,-87.884
Alabama,Homewood,33.4585,-86.8097
Alabama,Trussville,33.6552,-86.5632
Alabama,Bessemer,33.3709,-86.9715
Alabama,Athens,34.779,-86.9508
Alabama,Pelham,33.3218,-86.7422
Alabama,Fairhope,30.5209,-87.8791
Alabama,Mountain Brook,33.4915,-86.7345
Alabama,Albertville,34.2631,-86.2107
Alabama,Oxford,33.5974,-85.8681
Alabama,Anniston,33.6735,-85.8109
Alabama,Helena,33.2834,-86.8792
Alabama,Foley,30.397,-87.6642
Alabama,Prichard,30.7733,-88.1314
Alabama,Cullman,34.1769,-86.8407
Alabama,Selma,32.417,-87.0357
Alabama,Tillmans Corner,30.5815,-88.2128
Alabama,Troy,31.802,-85.9671
Alabama,Hueytown,33.4086,-87.0166
Alabama,Millbrook,32.5015,-86.3739
Alabama,Calera,33.1223,-86.7456
Alabama,Center Point,33.6439,-86.6846
Alabama,Muscle Shoals,34.7432,-87.6338
Alabama,Saraland,30.854,-88.0972
Alabama,Gardendale,33.6766,-86.8098
Alabama,Talladega,33.4318,-86.0995
Alabama,Scottsboro,34.6446,-86.0482
Alabama,Hartselle,34.4404,-86.9404
Alabama,Gulf Shores,30.2758,-87.7013
Alabama,Chelsea,33.3269,-86.6295
Alabama,Fort Payne,34.4573,-85.6894
Alabama,Alexander City,32.9272,-85.9371
Alabama,Jasper,33.856,-87.2703
Alabama,Jacksonville,33.8101,-85.7552
Alabama,Ozark,31.4516,-85.645
Alabama,Irondale,33.5399,-86.6591
Alabama,Moody,33.6034,-86.4938
Alabama,McCalla,33.3031,-87.0267
Alabama,Pell City,33.5603,-86.2636
Alabama,Eufaula,31.9099,-85.1527
Alabama,Sylacauga,33.1887,-86.2748
Alabama,Leeds,33.5468,-86.5714
Alabama,Russellville,34.5057,-87.7281
Alabama,Valley,32.8014,-85.2044
Alabama,Forestdale,33.5737,-86.9
Alabama,Clay,33.6966,-86.6082
Alabama,Rainbow City,33.9288,-86.0842
Alabama,Boaz,34.199,-86.1552
Alabama,Spanish Fort,30.723,-87.8659
Alabama,Fairfield,33.4748,-86.9194
Alabama,Saks,33.7114,-85.8537
Alabama,Fultondale,33.6174,-86.8014
Alabama,Meadowbrook,33.3952,-86.7044
Alabama,Pleasant Grove,33.494,-86.9781
Alabama,Pike Road,32.2736,-86.1189
Alabama,Southside,33.8908,-86.018
Alabama,Sheffield,34.757,-87.6982
Alabama,Tuskegee,32.4187,-85.6825
Alabama,Tuscumbia,34.7185,-87.7026
Alabama,Andalusia,31.3094,-86.478
Alabama,Clanton,32.8456,-86.6195
Alabama,Guntersville,34.3679,-86.2523
Alabama,Arab,34.3324,-86.5012
Alabama,Atmore,31.1241,-87.4578
Alabama,Meridianville,34.8749,-86.5806
Alabama,Bay Minette,30.8944,-87.7913
Alabama,Orange Beach,30.294,-87.5954
Alabama,Brook Highland,33.4404,-86.6849
Alabama,Greenville,31.8431,-86.637
Alabama,Montevallo,33.1261,-86.8477
Alabama,Wetumpka,32.5404,-86.207
Alabama,Pinson,33.7033,-86.6697
Alabama,Demopolis,32.4997,-87.8267
Alabama,Hamilton,34.1387,-87.9708
Alabama,Lanett,32.8578,-85.2078
Alabama,Oneonta,33.947,-86.4898
Alabama,Lincoln,33.5802,-86.1279
Alabama,Opp,31.2844,-86.2574
Alabama,Satsuma,30.8579,-88.0634
Alabama,Moores Mill,34.8521,-86.5204
Alabama,Robertsdale,30.5571,-87.7047
Alabama,Chickasaw,30.7714,-88.0797
Alabama,Theodore,30.5387,-88.1876
Alabama,Tarrant,33.5929,-86.7663
Alabama,Grayson Valley,33.6466,-86.6417
Alabama,Monroeville,31.5162,-87.3277
Alabama,Harvest,34.8551,-86.7586
Alabama,Attalla,33.9862,-86.121
Alabama,Rainsville,34.4944,-85.8365
Alabama,Smiths Station,32.5072,-85.0811
Alabama,Glencoe,33.9483,-85.9336
Alabama,Roanoke,33.1453,-85.3695
Alabama,Brewton,31.1092,-87.0766
Alabama,Highland Lakes,33.3976,-86.6479
Alabama,Midfield,33.4553,-86.9224
Alabama,Redland,32.4814,-86.1438
Alabama,Margaret,33.6728,-86.4639
Alabama,Headland,31.355,-85.357
Alabama,Odenville,33.7009,-86.4234
Alabama,Semmes,30.8224,-88.2201
Alabama,Holtville,32.6303,-86.328
Alabama,Pine Level,32.5795,-86.4543
Alabama,Daleville,31.2915,-85.7117
Alabama,Winfield,33.9347,-87.7913
Alabama,Piedmont,33.9276,-85.6153
Alabama,Springville,33.7405,-86.4841
Alabama,Tallassee,32.53,-85.8901
Alabama,Childersburg,33.2925,-86.3408
Alabama,Jackson,31.5323,-87.8912
Alabama,Fort Rucker,31.3426,-85.7161
Alabama,Columbiana,33.1915,-86.6156
Alabama,Hokes Bluff,33.9897,-85.8629
Alabama,Mount Olive,33.6693,-86.8755
Alabama,Argo,33.691,-86.5053
Alabama,Adamsville,33.6023,-86.9715
Alabama,Haleyville,34.2338,-87.6176
Alabama,Fayette,33.6942,-87.8312
Alabama,Geneva,31.0449,-85.8768
Alabama,Valley Grande,32.4869,-87.0328
Alabama,Hazel Green,34.9237,-86.5674
Alabama,Alexandria,33.7608,-85.872
Alabama,Citronelle,31.0973,-88.2498
Alabama,Kimberly,33.7803,-86.8006
Alabama,Loxley,30.6846,-87.7392
Alabama,Thomasville,31.9105,-87.743
Alabama,Centre,34.1531,-85.6717
Alabama,Lake View,33.2883,-87.1327
Alabama,Evergreen,31.4332,-86.9761
Alabama,Priceville,34.5296,-86.8822
Alabama,Elba,31.4172,-86.0771
Alabama,Grand Bay,30.4721,-88.3444
Alabama,Livingston,32.5955,-88.1869
Alabama,Heflin,33.6474,-85.5693
Alabama,Holt,33.2297,-87.4829
Alabama,Moulton,34.4883,-87.2827
Alabama,Union Springs,32.1395,-85.7146
Alabama,Weaver,33.7591,-85.8094
Alabama,Emerald Mountain,32.4477,-86.0944
Alabama,Red Bay,34.4361,-88.1365
Alabama,Warrior,33.8149,-86.8156
Alabama,Hanceville,34.064,-86.7644
Alabama,Marion,32.632,-87.3173
Alabama,Cottondale,33.193,-87.4549
Alabama,West End-Cobb Town,33.6515,-85.8766
Alabama,Dadeville,32.8261,-85.7762
Alabama,Ladonia,32.4597,-85.0904
Alabama,Underwood-Petersville,34.8761,-87.6982
Alabama,Moundville,32.9965,-87.6275
Alabama,Brent,32.9449,-87.1721
Alabama,Eutaw,32.8462,-87.9003
Alabama,Eagle Point,33.4009,-86.6768
Alabama,Triana,34.5878,-86.7485
Alabama,New Hope,34.538,-86.4124
Alabama,Choccolocco,33.6677,-85.7072
Alabama,Centreville,32.959,-87.132
Alabama,Luverne,31.7189,-86.2691
Alabama,La Fayette,32.8994,-85.4008
Alabama,Hartford,31.1053,-85.6912
Alabama,Jemison,32.9707,-86.7331
Alabama,Remlap,33.807,-86.5939
Alabama,Owens Cross Roads,34.5855,-86.455
Alabama,Trinity,34.5974,-87.0814
Alabama,Brookwood,33.2398,-87.3315
Alabama,Lineville,33.3128,-85.7523
Alabama,Good Hope,34.1103,-86.8662
Alabama,Indian Springs Village,33.3612,-86.7469
Alabama,Huguley,32.8431,-85.2396
Alabama,Sumiton,33.7493,-87.0469
Alabama,York,32.5006,-88.2914
Alabama,Abbeville,31.5647,-85.2591
Alabama,Ashville,33.8352,-86.27
Alabama,Brighton,33.4396,-86.9454
Alabama,Dora,33.7281,-87.0813
Alabama,East Brewton,31.0914,-87.0553
Alabama,Henagar,34.6306,-85.7309
Alabama,Clayton,31.8823,-85.4605
Alabama,Bridgeport,34.9493,-85.7238
Alabama,Taylor,31.1688,-85.4758
Alabama,Morris,33.7462,-86.8008
Alabama,Ashford,31.1853,-85.2362
Alabama,Midland City,31.3157,-85.4937
Alabama,Riverside,33.6164,-86.2044
Alabama,Greensboro,32.701,-87.5937
Alabama,Stapleton,30.7356,-87.7977
Alabama,Bayou La Batre,30.4076,-88.2633
Alabama,Kinsey,31.2963,-85.335
Alabama,Guin,33.9832,-87.9024
Alabama,Aliceville,33.1237,-88.1593
Alabama,Carlisle-Rockledge,34.1145,-86.1241
Alabama,Selmont-West Selmont,32.3782,-87.0069
Alabama,Whitesboro,34.169,-86.0585
Alabama,Uniontown,32.4466,-87.4873
Alabama,Vance,33.174,-87.2266
Alabama,Lipscomb,33.426,-86.9261
Alabama,Slocomb,31.1121,-85.5987
Alabama,Point Clear,30.4861,-87.9111
Alabama,Brundidge,31.7176,-85.8176
Alabama,Thorsby,32.9169,-86.7203
Alabama,Collinsville,34.2672,-85.8686
Alabama,Coaling,33.1699,-87.3499
Alabama,Ashland,33.2699,-85.8337
Alabama,Vincent,33.3831,-86.4025
Alabama,Elberta,30.3738,-87.5957
Alabama,Stevenson,34.8768,-85.8144
Alabama,Graysville,33.6338,-86.9414
Alabama,Creola,30.8742,-88.0095
Alabama,Linden,32.3014,-87.7926
Alabama,Cowarts,31.2062,-85.3098
Alabama,Camden,31.9985,-87.2889
Alabama,Florala,31.0224,-86.3182
Alabama,Vernon,33.7588,-88.1143
Alabama,Sulligent,33.8912,-88.1266
Alabama,Samson,31.1124,-86.0467
Alabama,Butler,32.0965,-88.2108
Alabama,Wilsonville,33.2408,-86.4911
Alabama,Cedar Bluff,34.2214,-85.5886
Alabama,Crossville,34.2827,-85.9997
Alabama,Blountsville,34.0758,-86.5839
Alabama,Level Plains,31.3071,-85.7687
Alabama,Grove Hill,31.6987,-87.7729
Alabama,Sardis City,34.1724,-86.1191
Alabama,Rehobeth,31.1245,-85.4396
Alabama,Sylvania,34.562,-85.8047
Alabama,Dauphin Island,30.2509,-88.1713
Alabama,Carbon Hill,33.895,-87.5221
Alabama,Westover,33.3673,-86.534
Alabama,Bon Secour,30.3182,-87.7244
Alabama,Cordova,33.7618,-87.1994
Alabama,Ragland,33.7483,-86.1359
Alabama,Concord,33.462,-87.0404
Alabama,Deatsville,32.589,-86.3891
Alabama,Shoal Creek,33.4308,-86.6109
Alabama,Stewartville,33.0755,-86.2607
Alabama,Smoke Rise,33.8799,-86.8247
Alabama,Sylvan Springs,33.5302,-87.0312
Alabama,Gordo,33.3223,-87.9037
Alabama,Harpersville,33.3177,-86.4284
Alabama,Newton,31.3412,-85.5883
Alabama,New Market,34.8923,-86.4258
Alabama,Malvern,31.1437,-85.523
Alabama,Reform,33.3782,-88.0173
Alabama,Blue Ridge,32.4989,-86.1824
Alabama,Lookout Mountain,34.1159,-85.9655
Alabama,Woodstock,33.2175,-87.1484
Alabama,Rock Creek,33.4772,-87.0812
Alabama,Summerdale,30.4767,-87.6876
Alabama,Flomaton,31.0148,-87.256
Alabama,Ballplay,34.023,-85.8015
Alabama,New Brockton,31.3767,-85.919
Alabama,Marbury,32.673,-86.4637
Alabama,Hackleburg,34.2694,-87.8304
Alabama,Fayetteville,33.1681,-86.4428
Alabama,Mount Vernon,31.0877,-88.0132
Alabama,Munford,33.5262,-85.9562
Alabama,Hayden,33.8945,-86.7442
Alabama,Lillian,30.4189,-87.4208
Alabama,Georgiana,31.6391,-86.7468
Alabama,Ardmore,34.9878,-86.829
Alabama,Coats Bend,34.0733,-85.8746
Alabama,Goodwater,33.0607,-86.0525
Alabama,Rogersville,34.8277,-87.2841
Alabama,Elmore,32.5566,-86.341
Alabama,Webb,31.2572,-85.2896
Alabama,Brookside,33.6346,-86.9063
Alabama,Cleveland,34.0022,-86.5614
Alabama,Fort Deposit,31.9863,-86.5664
Alabama,Clio,31.7085,-85.611
Alabama,Coosada,32.4954,-86.3265
Alabama,West Blocton,33.1182,-87.1252
Alabama,Berry,33.6667,-87.6093
Alabama,Falkville,34.377,-86.9095
Alabama,Eclectic,32.6402,-86.0411
Alabama,Locust Fork,33.8768,-86.6471
Alabama,Mignon,33.1866,-86.2569
Alabama,Frisco City,31.4395,-87.4042
Alabama,Ohatchee,33.7898,-86.0291
Alabama,Tidmore Bend,34.0332,-85.9264
Alabama,Double Springs,34.1496,-87.3894
Alabama,Chatom,31.4691,-88.246
Alabama,Minor,33.539,-86.9401
Alabama,Vandiver,33.4589,-86.5292
Alabama,Town Creek,34.6713,-87.4078
Alabama,Cottonwood,31.054,-85.2996
Alabama,Bear Creek,34.2555,-87.7134
Alabama,Grant,34.5182,-86.2604
Alabama,Littleville,34.5951,-87.6707
Alabama,Killen,34.861,-87.5293
Alabama,Snead,34.1158,-86.3901
Alabama,Carrollton,33.2619,-88.0951
Alabama,New Union,34.1337,-86.228
Alabama,Millport,33.5559,-88.0824
Alabama,Camp Hill,32.7973,-85.6558
Alabama,Steele,33.9414,-86.1921
Alabama,Phil Campbell,34.3515,-87.7074
Alabama,Parrish,33.7323,-87.2801
Alabama,Cherokee,34.7577,-87.9656
Alabama,Fyffe,34.449,-85.9052
Alabama,Altoona,34.04,-86.3052
Alabama,Ivalee,34.0372,-86.1472
Alabama,Shelby,33.1069,-86.5854
Alabama,Dunnavant,33.495,-86.5405
Alabama,Brantleyville,33.2193,-86.8825
Alabama,Hollywood,34.7173,-85.9656
Alabama,Notasulga,32.5554,-85.6686
Alabama,Leesburg,34.1786,-85.7779
Alabama,Geraldine,34.3591,-86.0026
Alabama,Coker,33.2438,-87.6813
Alabama,Powell,34.5326,-85.8976
Alabama,White Plains,33.7593,-85.6885
Alabama,Gallant,34.0013,-86.2302
Alabama,Holly Pond,34.1677,-86.6121
Alabama,Egypt,34.0759,-86.1651
Alabama,Brilliant,34.0257,-87.769
Alabama,Pea Ridge,33.1338,-86.9379
Alabama,Redstone Arsenal,34.6878,-86.6612
Alabama,Mosses,32.1888,-86.6794
Alabama,Skyline,34.7985,-86.1224
Alabama,Hayneville,32.1826,-86.5786
Alabama,Brantley,31.582,-86.2568
Alabama,Gurley,34.7025,-86.3743
Alabama,Magnolia Springs,30.4034,-87.7759
Alabama,White Hall,32.2974,-86.7158
Alabama,Somerville,34.4671,-86.7912
Alabama,Autaugaville,32.4326,-86.6588
Alabama,Reeltown,32.5742,-85.8196
Alabama,Susan Moore,34.092,-86.4342
Alabama,Mulga,33.5549,-86.9713
Alabama,New Site,33.026,-85.7845
Alabama,Walnut Grove,34.0646,-86.2872
Alabama,Oakman,33.7143,-87.3887
Alabama,Silverhill,30.5454,-87.7506
Alabama,Leroy,31.495,-87.9728
Alabama,Douglas,34.1683,-86.3234
Alabama,Hobson City,33.6188,-85.8461
Alabama,Pine Hill,31.9859,-87.5875
Alabama,Section,34.5816,-85.9849
Alabama,Jacksons' Gap,32.884,-85.815
Alabama,Edgewater,33.5301,-86.9528
Alabama,Woodville,34.6296,-86.2835
Alabama,McDonald Chapel,33.5186,-86.9385
Alabama,Gilbertown,31.8662,-88.3075
Alabama,Wedowee,33.308,-85.4865
Alabama,Ider,34.7026,-85.669
Alabama,Perdido,31.0057,-87.6301
Alabama,Lexington,34.9594,-87.3728
Alabama,Sterrett,33.4422,-86.461
Alabama,Columbia,31.2954,-85.1102
Alabama,Pisgah,34.6844,-85.846
Alabama,Leighton,34.6937,-87.5243
Alabama,Hollis Crossroads,33.5313,-85.6529
Alabama,Ariton,31.5978,-85.7131
Alabama,Addison,34.2027,-87.178
Alabama,Wadley,33.1234,-85.5686
Alabama,Baileyton,34.2609,-86.6088
Alabama,Maplesville,32.7883,-86.8767
Alabama,Babbie,31.3021,-86.3194
Alabama,Bristow Cove,34.1092,-86.241
Alabama,Reece City,34.0772,-86.0345
Alabama,Trafford,33.8187,-86.7465
Alabama,Belle Fontaine,30.4895,-88.1059
Alabama,Lynn,34.0576,-87.5486
Alabama,Our Town,32.8422,-85.967
Alabama,Rock Mills,33.1599,-85.2811
Alabama,Sand Rock,34.2312,-85.7704
Alabama,Franklin,32.4527,-85.7854
Alabama,Eva,34.3265,-86.7653
Alabama,Wilton,33.0816,-86.8797
Alabama,West Point,34.2388,-86.9639
Alabama,St. Florian,34.8741,-87.6237
Alabama,Courtland,34.6699,-87.3279
Alabama,Pinckard,31.319,-85.5378
Alabama,Kinston,31.2196,-86.1701
Alabama,Valley Head,34.5562,-85.623
Alabama,Grimes,31.2999,-85.4503
Alabama,Oak Grove,33.1904,-86.3037
Alabama,Axis,30.9222,-88.0226
Alabama,South Vinemont,34.2356,-86.864
Alabama,Stockton,31.0012,-87.8739
Alabama,Pickensville,33.2358,-88.2894
Alabama,Excel,31.4264,-87.3437
Alabama,Joppa,34.2996,-86.5499
Alabama,Perdido Beach,30.3539,-87.5048
Alabama,Dodge City,34.0433,-86.8855
Alabama,Allgood,33.9076,-86.5161
Alabama,Newville,31.4206,-85.3367
Alabama,Fairview,34.2502,-86.6777
Alabama,Garden City,34.0147,-86.7491
Alabama,Hollins,33.1218,-86.127
Alabama,McKenzie,31.5465,-86.726
Alabama,Castleberry,31.2997,-87.0291
Alabama,North Courtland,34.68,-87.3057
Alabama,River Falls,31.3524,-86.5446
Alabama,Berlin,34.1954,-86.7436
Alabama,Clayhatchee,31.2369,-85.7215
Alabama,Avon,31.1797,-85.2792
Alabama,Millry,31.6212,-88.328
Alabama,Lockhart,31.013,-86.3503
Alabama,Forkland,32.6474,-87.8674
Alabama,Hytop,34.8966,-86.0892
Alabama,Kennedy,33.581,-87.986
Alabama,Glen Allen,33.8921,-87.7327
Alabama,Red Level,31.4067,-86.6062
Alabama,Lisman,32.1717,-88.2841
Alabama,Pleasant Groves,34.7376,-86.1976
Alabama,Hammondville,34.5662,-85.6403
Alabama,Ranburne,33.5259,-85.339
Alabama,Midway,32.0764,-85.5244
Alabama,West Jefferson,33.6665,-87.047
Alabama,St. Stephens,31.5711,-88.0528
Alabama,Highland Lake,33.8946,-86.4226
Alabama,Elkmont,34.9326,-86.977
Alabama,Napier Field,31.3149,-85.455
Alabama,Hillsboro,34.6426,-87.1785
Alabama,Nances Creek,33.8555,-85.6691
Alabama,Louisville,31.781,-85.5583
Alabama,Shorter,32.4115,-85.9728
Alabama,Nectar,33.9798,-86.6206
Alabama,Silas,31.7678,-88.3259
Alabama,Rosa,33.9928,-86.5003
Alabama,Sipsey,33.8221,-87.0829
Alabama,Bellamy,32.4637,-88.1315
Alabama,Twin,33.9923,-87.8523
Alabama,Rutledge,31.7241,-86.302
Alabama,Rockford,32.8969,-86.2083
Alabama,Hackneyville,33.0547,-85.9344
Alabama,Hurtsboro,32.2401,-85.4147
Alabama,Dutton,34.6062,-85.9118
Alabama,Arley,34.0762,-87.2178
Alabama,Nixburg,32.8555,-86.1008
Alabama,Pennington,32.2006,-88.0376
Alabama,Thomaston,32.2683,-87.6237
Alabama,Ray,32.8681,-86.0453
Alabama,Vina,34.3762,-88.0606
Alabama,Shiloh,34.4627,-85.8776
Alabama,Mentone,34.5632,-85.5897
Alabama,Maytown,33.55,-87.0
Alabama,Mount Olive,33.0785,-86.133
Alabama,County Line,33.8207,-86.7195
Alabama,Cuba,32.4407,-88.3748
Alabama,Millerville,33.1915,-85.9298
Alabama,Boligee,32.7681,-88.0286
Alabama,Gordon,31.1436,-85.0925
Alabama,Movico,31.0628,-88.0266
Alabama,Carolina,31.2341,-86.521
Alabama,Dozier,31.5054,-86.3692
Alabama,Eunola,31.0314,-85.834
Alabama,Epes,32.695,-88.142
Alabama,Goshen,31.72,-86.1232
Alabama,Langston,34.5451,-86.0934
Alabama,Madrid,31.0356,-85.3992
Alabama,Hodges,34.3342,-87.9232
Alabama,Colony,33.9414,-86.902
Alabama,Coffeeville,31.7666,-88.086
Alabama,Uriah,31.3074,-87.4992
Alabama,Pine Ridge,34.4479,-85.7838
Alabama,Delta,33.4405,-85.6759
Alabama,Waldo,33.3871,-86.0411
Alabama,Sanford,31.2988,-86.3988
Alabama,Calvert,31.1499,-88.0215
Alabama,Anderson,34.9157,-87.2743
Alabama,Gordonville,32.1592,-86.7042
Alabama,Hatton,34.5607,-87.4138
Alabama,Macedonia,33.4031,-88.2392
Alabama,Heath,31.3448,-86.4691
Alabama,Fruithurst,33.7295,-85.4312
Alabama,Repton,31.4097,-87.2389
Alabama,Detroit,34.0274,-88.1678
Alabama,Sweet Water,32.1046,-87.8619
Alabama,Akron,32.8791,-87.7409
Alabama,Fulton,31.791,-87.7442
Alabama,Vredenburgh,31.8232,-87.3181
Alabama,Woodland,33.3756,-85.3974
Alabama,Black,31.0098,-85.7444
Alabama,Morrison Crossroads,33.418,-85.4883
Alabama,Spring Garden,33.973,-85.5558
Alabama,Spruce Pine,34.3929,-87.7296
Alabama,Bakerhill,31.7769,-85.2954
Alabama,Hissop,32.8906,-86.1296
Alabama,Yellow Bluff,31.9623,-87.4774
Alabama,Boykin,32.0684,-87.2943
Alabama,Weogufka,33.0217,-86.3091
Alabama,Horn Hill,31.2381,-86.3252
Alabama,Coffee Springs,31.1658,-85.9109
Alabama,Edwardsville,33.8837,-85.4141
Alabama,McIntosh,31.265,-88.0284
Alabama,Beatrice,31.7333,-87.209
Alabama,Fredonia,32.9836,-85.2923
Alabama,Graham,33.4552,-85.3231
Alabama,Gantt,31.4107,-86.4835
Alabama,Chunchula,30.9272,-88.2082
Alabama,Beaverton,33.9354,-88.0218
Alabama,Belk,33.6516,-87.9286
Alabama,Nauvoo,33.9844,-87.4854
Alabama,Paint Rock,34.6609,-86.334
Alabama,Kansas,33.9028,-87.5566
Alabama,Union,32.9938,-87.9072
Alabama,Waterloo,34.9172,-88.0644
Alabama,Vinegar Bend,31.2591,-88.3673
Alabama,Fruitdale,31.3498,-88.4109
Alabama,Daviston,33.0568,-85.6343
Alabama,East Point,34.1909,-86.7919
Alabama,Bon Air,33.2594,-86.3271
Alabama,Gainesville,32.8149,-88.1608
Alabama,Putnam,32.0181,-88.0331
Alabama,Belgreen,34.4745,-87.8617
Alabama,Gaylesville,34.2674,-85.5612
Alabama,Providence,32.3424,-87.7761
Alabama,Onycha,31.2257,-86.276
Alabama,Whatley,31.6463,-87.7108
Alabama,Penton,33.0098,-85.4748
Alabama,Riverview,31.0613,-87.0775
Alabama,Lakeview,34.3917,-85.9756
Alabama,Fairford,31.178,-88.0728
Alabama,Broomtown,34.3657,-85.5321
Alabama,Loachapoka,32.6079,-85.5985
Alabama,Waverly,32.7301,-85.571
Alabama,Banks,31.8133,-85.8364
Alabama,Geiger,32.8687,-88.3182
Alabama,Glenwood,31.6713,-86.1737
Alabama,Cusseta,32.7876,-85.3058
Alabama,Hanover,33.0029,-86.2009
Alabama,Orrville,32.3068,-87.2454
Alabama,Equality,32.7657,-86.1232
Alabama,Sims Chapel,31.2493,-88.143
Alabama,Toxey,31.9107,-88.3091
Alabama,Talladega Springs,33.1205,-86.4378
Alabama,Pine Apple,31.8722,-86.9891
Alabama,Gulfcrest,30.9911,-88.2422
Alabama,Gu-Win,33.9443,-87.8704
Alabama,Deer Park,31.2184,-88.328
Alabama,Malcolm,31.1987,-88.0011
Alabama,Eldridge,33.922,-87.6201
Alabama,Abanda,33.0916,-85.527
Alabama,Newbern,32.5917,-87.5356
Alabama,Standing Rock,33.0857,-85.2398
Alabama,Kellyton,32.9792,-86.0346
Alabama,Pollard,31.0239,-87.173
Alabama,North Johns,33.3678,-87.1007
Alabama,Cullomburg,31.7131,-88.2918
Alabama,Billingsley,32.6647,-86.7067
Alabama,Five Points,33.0173,-85.3516
Alabama,Haleburg,31.41,-85.1381
Alabama,Lester,34.9828,-87.1555
Alabama,Libertyville,31.2401,-86.457
Alabama,Hobson,31.4887,-88.1509
Alabama,Faunsdale,32.4576,-87.5938
Alabama,Lowndesboro,32.2764,-86.6108
Alabama,Peterman,31.5837,-87.263
Alabama,Blue Springs,31.6635,-85.5035
Alabama,Ridgeville,34.0569,-86.1029
Alabama,Fitzpatrick,32.2104,-85.8737
Alabama,Nanafalia,32.1114,-87.9958
Alabama,Needham,31.987,-88.3366
Alabama,Panola,32.9468,-88.2623
Alabama,Myrtlewood,32.2521,-87.9493
Alabama,Union Grove,34.4062,-86.4517
Alabama,Petrey,31.8522,-86.204
Alabama,Catherine,32.1862,-87.47
Alabama,Megargel,31.3781,-87.4306
Alabama,Tibbie,31.3705,-88.2439
Alabama,Cardiff,33.6473,-86.9306
Alabama,Goldville,33.0849,-85.778
Alabama,Ethelsville,33.4141,-88.2161
Alabama,Rockville,31.4058,-87.8442
Alabama,Mooresville,34.6259,-86.88
Alabama,Carlton,31.3486,-87.8357
Alabama,Benton,32.3079,-86.8175
Alabama,Natural Bridge,34.0904,-87.6014
Alabama,McMullen,33.1481,-88.1757
Alabama,Emelle,32.7287,-88.3165
Alabama,Memphis,33.137,-88.3059
Alabama,Dayton,32.351,-87.6416
Alabama,Bucks,31.0169,-88.0264
Alabama,Oak Hill,31.9216,-87.0852
Alaska,Anchorage,61.1743,-149.2843
Alaska,Fairbanks,64.8365,-147.6517
Alaska,Juneau,58.3729,-134.1784
Alaska,Knik-Fairview,61.5076,-149.6226
Alaska,Badger,64.8001,-147.3851
Alaska,College,64.8673,-147.8195
Alaska,North Lakes,61.6184,-149.3107
Alaska,Meadow Lakes,61.638,-149.6096
Alaska,Wasilla,61.5811,-149.4608
Alaska,Tanaina,61.6572,-149.4277
Alaska,Kalifornsky,60.4534,-151.2203
Alaska,Sitka,57.1932,-135.3674
Alaska,Ketchikan,55.3571,-131.6746
Alaska,Kenai,60.5622,-151.2081
Alaska,Steele Creek,64.9256,-147.4351
Alaska,Bethel,60.7939,-161.7963
Alaska,Chena Ridge,64.7943,-148.0329
Alaska,Sterling,60.5401,-150.8053
Alaska,Palmer,61.5972,-149.1147
Alaska,Gateway,61.5669,-149.2227
Alaska,Kodiak,57.7912,-152.4197
Alaska,Homer,59.6475,-151.5131
Alaska,South Lakes,61.5876,-149.3155
Alaska,Fishhook,61.7312,-149.2836
Alaska,Utqiaġvik,71.2539,-156.7982
Alaska,Farmers Loop,64.9082,-147.6986
Alaska,Nikiski,60.725,-151.2253
Alaska,Soldotna,60.4853,-151.069
Alaska,Unalaska,53.9103,-166.529
Alaska,Mill Bay,57.8155,-152.3675
Alaska,Valdez,61.0836,-146.3172
Alaska,Big Lake,61.5155,-149.9755
Alaska,Nome,64.5057,-165.4153
Alaska,Butte,61.534,-148.9882
Alaska,Goldstream,64.9422,-148.0273
Alaska,Kotzebue,66.8771,-162.5035
Alaska,Petersburg,56.7569,-132.8749
Alaska,Farm Loop,61.6351,-149.1552
Alaska,Seward,60.1248,-149.3916
Alaska,Eielson AFB,64.6733,-147.0595
Alaska,Cordova,60.5301,-145.6421
Alaska,Ester,64.8791,-148.0412
Alaska,Deltana,63.7893,-145.3516
Alaska,Dillingham,59.0605,-158.5323
Alaska,Fritz Creek,59.7469,-151.2886
Alaska,North Pole,64.7527,-147.3627
Alaska,Willow,61.887,-149.6202
Alaska,Ridgeway,60.5308,-151.0521
Alaska,Bear Creek,60.2081,-149.3698
Alaska,Wrangell,56.1808,-132.0268
Alaska,Anchor Point,59.7474,-151.6957
Alaska,Houston,61.6153,-149.8006
Alaska,Point MacKenzie,61.3427,-150.0485
Alaska,Kodiak Station,57.768,-152.5959
Alaska,Haines,59.2497,-135.4688
Alaska,Akutan,54.14,-165.763
Alaska,Susitna North,62.1535,-149.7284
Alaska,Lazy Mountain,61.6582,-148.9256
Alaska,Cohoe,60.267,-151.2982
Alaska,Metlakatla,55.1147,-131.5557
Alaska,Hooper Bay,61.5092,-166.1115
Alaska,Diamond Ridge,59.7024,-151.5546
Alaska,Prudhoe Bay,70.3659,-148.7494
Alaska,Tok,63.3289,-143.0379
Alaska,Skagway,59.4644,-135.2757
Alaska,Funny River,60.4843,-150.7887
Alaska,Salamatof,60.6042,-151.3113
Alaska,Talkeetna,62.3095,-149.9239
Alaska,Sutton-Alpine,61.7414,-148.8742
Alaska,Craig,55.4887,-133.1116
Alaska,Buffalo Soapstone,61.6844,-149.1212
Alaska,Salcha,64.5341,-146.8836
Alaska,Healy,63.9596,-148.9708
Alaska,Chevak,61.5296,-165.5941
Alaska,Hoonah,58.122,-135.4315
Alaska,Delta Junction,64.0573,-145.7
Alaska,Ninilchik,60.0613,-151.4044
Alaska,Savoonga,63.6797,-170.4833
Alaska,Point Hope,68.3442,-166.6812
Alaska,Emmonak,62.7756,-164.5093
Alaska,Togiak,59.0499,-160.3976
Alaska,Kwethluk,60.7932,-161.4308
Alaska,Selawik,66.5981,-160.0008
Alaska,Knik River,61.4619,-149.0075
Alaska,Quinhagak,59.7513,-161.8972
Alaska,Unalakleet,63.8942,-160.7968
Alaska,King Cove,55.085,-162.3168
Alaska,Alakanuk,62.711,-164.6497
Alaska,Womens Bay,57.687,-152.6847
Alaska,Klawock,55.5564,-133.0861
Alaska,Happy Valley,59.8985,-151.5289
Alaska,Kipnuk,59.9375,-164.0622
Alaska,Noorvik,66.8282,-161.0347
Alaska,Akiachak,60.921,-161.4021
Alaska,Toksook Bay,60.5274,-165.1069
Alaska,Yakutat,59.5636,-139.6062
Alaska,Gustavus,58.4347,-135.7282
Alaska,Kotlik,63.0292,-163.5367
Alaska,Two Rivers,64.8908,-147.0899
Alaska,Fox River,59.8899,-151.0121
Alaska,Gambell,63.7759,-171.7148
Alaska,Stebbins,63.4734,-162.26
Alaska,Wainwright,70.6582,-159.9852
Alaska,Kasigluk,60.8638,-162.5366
Alaska,Mountain Village,62.092,-163.695
Alaska,Pilot Station,61.9482,-162.8726
Alaska,Pleasant Valley,64.8855,-146.8986
Alaska,Scammon Bay,61.8419,-165.5833
Alaska,St. Mary's,62.0628,-163.2443
Alaska,Nunapitchuk,60.8817,-162.4646
Alaska,Sand Point,55.3135,-160.4843
Alaska,Kachemak,59.6745,-151.4363
Alaska,Shishmaref,66.233,-166.1253
Alaska,Noatak,67.5895,-163.0104
Alaska,Buckland,65.9765,-161.1394
Alaska,Kake,56.9753,-133.9037
Alaska,Moose Creek,64.7164,-147.1666
Alaska,Kasilof,60.3193,-151.2329
Alaska,Nuiqsut,70.2135,-150.9897
Alaska,New Stuyahok,59.4853,-157.3091
Alaska,Napaskiak,60.7028,-161.7538
Alaska,Aniak,61.5788,-159.5474
Alaska,Chefornak,60.1518,-164.2515
Alaska,South Van Horn,64.8097,-147.7878
Alaska,Trapper Creek,62.4154,-150.4078
Alaska,Marshall,61.8716,-162.0609
Alaska,Manokotak,58.7395,-158.9145
Alaska,Kongiganak,59.9916,-162.847
Alaska,Thorne Bay,55.667,-132.5357
Alaska,Galena,64.7414,-156.8734
Alaska,Naknek,58.7852,-156.8859
Alaska,Tuntutuliak,60.4103,-162.6697
Alaska,Akiak,60.9094,-161.216
Alaska,St. Michael,63.4585,-162.1345
Alaska,Kiana,66.9726,-160.4344
Alaska,Tuluksak,61.1044,-160.9372
Alaska,Kivalina,67.7269,-164.5355
Alaska,Big Delta,64.157,-145.7409
Alaska,Glennallen,62.1539,-145.8441
Alaska,Brevig Mission,65.3432,-166.5089
Alaska,Fort Yukon,66.5884,-145.2276
Alaska,Anaktuvuk Pass,68.1498,-151.6971
Alaska,Russian Mission,61.7787,-161.3629
Alaska,St. Paul,57.1791,-170.3228
Alaska,Tununak,60.6071,-165.128
Alaska,Fox,64.9749,-147.609
Alaska,Eek,60.2163,-162.042
Alaska,False Pass,54.8724,-163.3343
Alaska,Atmautluak,60.8628,-162.2803
Alaska,Saxman,55.3232,-131.5891
Alaska,Hydaburg,55.2058,-132.8204
Alaska,Kwigillingok,59.8776,-163.1773
Alaska,Glacier View,61.848,-147.7726
Alaska,Elim,64.6182,-162.2766
Alaska,Napakiak,60.6905,-161.9856
Alaska,Nenana,64.5361,-149.0836
Alaska,Angoon,57.4413,-134.4784
Alaska,Cooper Landing,60.4946,-149.8439
Alaska,Copper Center,62.0011,-145.364
Alaska,Point Lay,69.7371,-162.8341
Alaska,Nikolaevsk,59.8296,-151.5964
Alaska,Koyuk,64.9411,-161.1455
Alaska,Fort Greely,63.9678,-145.7149
Alaska,King Salmon,58.7352,-156.5285
Alaska,Nightmute,60.4624,-164.8346
Alaska,Huslia,65.7055,-156.311
Alaska,McGrath,62.9389,-155.5684
Alaska,Kaktovik,70.1215,-143.6294
Alaska,Lower Kalskag,61.5171,-160.3546
Alaska,Atqasuk,70.4808,-157.3255
Alaska,Ambler,67.0909,-157.8871
Alaska,Shungnak,66.8805,-157.15
Alaska,Whittier,60.7773,-148.6637
Alaska,Goodnews Bay,59.1272,-161.5753
Alaska,Chickaloon,61.8153,-148.292
Alaska,Harding-Birch Lakes,64.3813,-146.5306
Alaska,Teller,65.2524,-166.3521
Alaska,Nanwalek,59.3338,-151.9296
Alaska,Tanana,65.184,-152.0551
Alaska,Tazlina,62.0503,-145.443
Alaska,Nulato,64.6913,-158.2754
Alaska,Seldovia,59.4395,-151.7104
Alaska,Northway,63.0008,-141.5413
Alaska,Kenny Lake,61.6216,-144.8213
Alaska,Eareckson Station,52.7211,174.1071
Alaska,Moose Pass,60.5059,-149.4684
Alaska,Nunam Iqua,62.5069,-164.9006
Alaska,Old Harbor,57.2188,-153.3297
Alaska,Upper Kalskag,61.5403,-160.349
Alaska,Shaktoolik,64.3545,-161.1935
Alaska,Aleknagik,59.289,-158.6643
Alaska,Grayling,62.8961,-160.113
Alaska,Newtok,60.9351,-164.6457
Alaska,Clam Gulch,60.2089,-151.4042
Alaska,Mekoryuk,60.3702,-166.2682
Alaska,Venetie,67.0207,-146.3743
Alaska,Cantwell,63.4114,-148.7496
Alaska,Seldovia Village,59.4613,-151.5888
Alaska,Kobuk,66.9234,-156.9041
Alaska,Willow Creek,61.8302,-145.1986
Alaska,Port Alsworth,60.1567,-154.3396
Alaska,White Mountain,64.6824,-163.4128
Alaska,Koliganek,59.6967,-157.2248
Alaska,Deering,66.0695,-162.7646
Alaska,Allakaket,66.542,-152.583
Alaska,Anderson,64.3083,-149.1632
Alaska,Holy Cross,62.1851,-159.8588
Alaska,Golovin,64.5639,-162.9989
Alaska,Adak,51.9099,-176.5981
Alaska,Port Lions,57.867,-152.8562
Alaska,Manley Hot Springs,65.0188,-150.6453
Alaska,Gakona,62.368,-145.3052
Alaska,Wales,65.6132,-168.0683
Alaska,Newhalen,59.7371,-154.9024
Alaska,Denali Park,63.573,-148.6737
Alaska,Port Graham,59.3398,-151.8465
Alaska,Hope,60.8861,-149.633
Alaska,Mud Bay,59.1512,-135.3565
Alaska,Kaltag,64.3141,-158.7788
Alaska,Kokhanok,59.4121,-154.746
Alaska,Tyonek,61.0994,-151.3389
Alaska,Arctic Village,68.1654,-145.4014
Alaska,Minto,65.0896,-149.5902
Alaska,Tanacross,63.3287,-143.4866
Alaska,Naukati Bay,55.8741,-133.195
Alaska,Ruby,64.7233,-155.5005
Alaska,Nondalton,59.9752,-154.866
Alaska,Mentasta Lake,63.0117,-143.5615
Alaska,Coffman Cove,56.0017,-132.842
Alaska,Tetlin,63.1819,-142.5044
Alaska,Mosquito Lake,59.4751,-136.1991
Alaska,Pitkas Point,62.0374,-163.2681
Alaska,Crown Point,60.4267,-149.353
Alaska,Tenakee Springs,57.7901,-135.1354
Alaska,Slana,62.6179,-143.5224
Alaska,Silver Springs,62.0193,-145.3583
Alaska,Ekwok,59.3458,-157.487
Alaska,Gulkana,62.2154,-145.445
Alaska,Ouzinkie,57.9247,-152.4624
Alaska,Iliamna,59.7783,-154.8838
Alaska,McCarthy,61.454,-142.8647
Alaska,Chuathbaluk,61.5739,-159.247
Alaska,Twin Hills,59.0818,-160.2806
Alaska,Chitina,61.553,-144.1753
Alaska,Port Heiden,56.9652,-158.5864
Alaska,Shageluk,62.6616,-159.5514
Alaska,Mertarvik,60.811,-164.4991
Alaska,Koyukuk,64.9021,-157.6935
Alaska,Pelican,57.9592,-136.2151
Alaska,Chignik,56.2952,-158.3918
Alaska,Primrose,60.3416,-149.2964
Alaska,Sleetmute,61.6539,-157.103
Alaska,Circle,65.8386,-144.1753
Alaska,Tatitlek,60.8944,-146.6686
Alaska,Crooked Creek,61.7967,-158.081
Alaska,Nikolai,62.9991,-154.3749
Alaska,Perryville,55.9345,-159.1558
Alaska,Klukwan,59.3983,-135.8882
Alaska,Whale Pass,56.0821,-133.0675
Alaska,Hughes,66.0452,-154.2376
Alaska,Diomede,65.7539,-168.9226
Alaska,Eagle,64.7813,-141.1978
Alaska,Lowell Point,60.0761,-149.4938
Alaska,Port Alexander,56.2376,-134.6527
Alaska,Chignik Lagoon,56.3043,-158.5003
Alaska,Whitestone,64.1528,-145.9064
Alaska,Oscarville,60.7234,-161.7882
Alaska,Pilot Point,57.5411,-157.7228
Alaska,Anvik,62.6316,-160.2151
Alaska,Levelock,59.0682,-156.901
Alaska,Igiugig,59.301,-155.8633
Alaska,Clark's Point,58.833,-158.5273
Alaska,South Naknek,58.6755,-156.9941
Alaska,St. George,56.571,-169.6599
Alaska,Central,65.5091,-144.6205
Alaska,Hollis,55.5155,-132.7019
Alaska,Akhiok,56.9483,-154.2153
Alaska,Skwentna,61.8887,-151.2
Alaska,Dry Creek,63.6266,-144.6392
Alaska,Chignik Lake,56.2732,-158.7934
Alaska,Chiniak,57.5755,-152.279
Alaska,Halibut Cove,59.5696,-151.2238
Alaska,Chistochina,62.5964,-144.941
Alaska,Chenega,60.0921,-147.9946
Alaska,Stony River,61.792,-156.5905
Alaska,Rampart,65.4049,-149.921
Alaska,Takotna,62.9827,-156.0838
Alaska,Chalkyitsik,66.6468,-143.7893
Alaska,Platinum,58.9526,-161.747
Alaska,Tonsina,61.5303,-145.1101
Alaska,Atka,52.2115,-174.2135
Alaska,Eagle Village,64.7434,-141.1138
Alaska,Cold Bay,55.2158,-162.7757
Alaska,Beaver,66.3847,-147.2878
Alaska,Hyder,55.9815,-130.0383
Alaska,Nelchina,62.0104,-146.8299
Alaska,Pedro Bay,59.7896,-154.1413
Alaska,Nelson Lagoon,55.8366,-161.6358
Alaska,Excursion Inlet,58.4151,-135.3455
Alaska,Nikolski,53.0079,-168.7185
Alaska,Egegik,58.2051,-157.522
Alaska,Stevens Village,66.0237,-149.0803
Alaska,Mendeltna,62.1461,-146.758
Alaska,Alcan Border,62.7031,-141.1936
Alaska,Port Protection,56.3319,-133.6064
Alaska,Birch Creek,66.2683,-145.8766
Alaska,Beluga,61.1909,-151.1842
Alaska,Coldfoot,67.2475,-150.1081
Alaska,Larsen Bay,57.5299,-154.0012
Alaska,Lake Minchumina,63.7903,-152.4618
Alaska,Kasaan,55.5611,-132.4068
Alaska,Lutak,59.4122,-135.589
Alaska,Karluk,57.591,-154.3634
Alaska,Petersville,62.4535,-150.8841
Alaska,Paxson,62.9757,-145.7576
Alaska,Covenant Life,59.3975,-136.123
Alaska,Edna Bay,55.9676,-133.6923
Alaska,Healy Lake,64.0097,-144.6816
Alaska,Elfin Cove,58.0877,-136.2883
Alaska,Eureka Roadhouse,61.9585,-147.1551
Alaska,Game Creek,58.0501,-135.5125
Alaska,Bettles,66.9069,-151.538
Alaska,Dot Lake Village,63.6626,-144.0162
Alaska,Red Devil,61.7575,-157.3585
Alaska,Kupreanof,56.8213,-132.9722
Alaska,Dot Lake,63.5872,-144.2924
Alaska,Chase,62.4182,-149.9362
Alaska,Four Mile Road,64.6045,-149.1152
Alaska,Ferry,64.0496,-148.9206
Alaska,Livengood,65.4765,-148.4228
Alaska,Lake Louise,62.3016,-146.5402
Alaska,Sunrise,60.8701,-149.4678
Alaska,Alatna,66.5638,-152.8385
Alaska,Lime Village,61.33,-155.2336
Alaska,Tolsona,62.0678,-146.1203
Alaska,Evansville,66.9329,-151.3701
Alaska,Point Baker,56.3481,-133.6168
Alaska,Chicken,64.0877,-141.8283
Alaska,Susitna,61.5466,-150.5881
Alaska,Point Possession,60.9231,-150.6888
Alaska,Pope-Vannoy Landing,59.5706,-154.4472
Alaska,Red Dog Mine,68.0644,-162.8669
Alaska,Aleneva,58.0591,-152.909
Alaska,Wiseman,67.4809,-150.1541
Alaska,Portage Creek,58.9054,-157.6698
Alaska,Ugashik,57.6474,-156.9949
Alaska,Whitestone Logging Camp,58.0583,-135.4093
Alaska,Nabesna,62.4965,-143.0074
Alaska,Ivanof Bay,55.9182,-159.4933
Alaska,Hobart Bay,57.4178,-133.3066
Arizona,Phoenix,33.5722,-112.0901
Arizona,Tucson,32.153,-110.8708
Arizona,Mesa,33.4006,-111.7165
Arizona,Chandler,33.2828,-111.8518
Arizona,Gilbert,33.3102,-111.7432
Arizona,Glendale,33.5331,-112.1899
Arizona,Scottsdale,33.6843,-111.8614
Arizona,Peoria,33.7862,-112.308
Arizona,Tempe,33.3884,-111.9318
Arizona,Surprise,33.6708,-112.4525
Arizona,San Tan Valley,33.1786,-111.5628
Arizona,Yuma,32.5163,-114.5218
Arizona,Goodyear,33.254,-112.3665
Arizona,Buckeye,33.4316,-112.6416
Arizona,Avondale,33.3132,-112.3289
Arizona,Flagstaff,35.1852,-111.6207
Arizona,Casas Adobes,32.3418,-111.0116
Arizona,Queen Creek,33.2402,-111.6088
Arizona,Maricopa,33.0419,-111.9993
Arizona,Lake Havasu City,34.4998,-114.3109
Arizona,Casa Grande,32.9069,-111.7623
Arizona,Catalina Foothills,32.3019,-110.8848
Arizona,Marana,32.4659,-111.1354
Arizona,Oro Valley,32.4207,-110.977
Arizona,Prescott Valley,34.5979,-112.3185
Arizona,Prescott,34.5858,-112.4462
Arizona,Sierra Vista,31.5654,-110.3145
Arizona,Bullhead City,35.1274,-114.556
Arizona,Sun City,33.6155,-112.2831
Arizona,Apache Junction,33.3983,-111.5353
Arizona,El Mirage,33.5902,-112.3271
Arizona,San Luis,32.4862,-114.7234
Arizona,Sahuarita,31.9322,-110.9654
Arizona,Kingman,35.217,-114.0105
Arizona,Fortuna Foothills,32.6616,-114.3974
Arizona,Drexel Heights,32.1453,-111.048
Arizona,Florence,33.0694,-111.414
Arizona,Sun City West,33.6714,-112.3572
Arizona,Fountain Hills,33.6078,-111.7384
Arizona,Anthem,33.8468,-112.127
Arizona,Green Valley,31.8408,-111.0045
Arizona,Rio Rico,31.4982,-110.9878
Arizona,Nogales,31.3619,-110.9348
Arizona,New River,33.8826,-112.0861
Arizona,Douglas,31.3993,-109.5413
Arizona,Payson,34.2438,-111.319
Arizona,Tanque Verde,32.2688,-110.7437
Arizona,Fort Mohave,35.0004,-114.5749
Arizona,Flowing Wells,32.2938,-111.0111
Arizona,Eloy,32.7413,-111.594
Arizona,Sun Lakes,33.215,-111.87
Arizona,Sierra Vista Southeast,31.4525,-110.219
Arizona,Somerton,32.6018,-114.6963
Arizona,Valencia West,32.1355,-111.1123
Arizona,Vail,32.0217,-110.6937
Arizona,Coolidge,32.9336,-111.5236
Arizona,Chino Valley,34.7399,-112.4061
Arizona,New Kingman-Butler,35.2645,-114.0091
Arizona,Paradise Valley,33.5522,-111.9613
Arizona,Saddlebrooke,32.5564,-110.8747
Arizona,Camp Verde,34.5694,-111.857
Arizona,Tucson Estates,32.1792,-111.1266
Arizona,Cottonwood,34.7195,-112.0016
Arizona,Verde Village,34.7119,-111.9941
Arizona,Show Low,34.2651,-110.0383
Arizona,Gold Canyon,33.3639,-111.423
Arizona,Tucson Mountains,32.2822,-111.0773
Arizona,Safford,32.8333,-109.696
Arizona,Arizona City,32.7509,-111.6705
Arizona,Sedona,34.8585,-111.7931
Arizona,Picture Rocks,32.3247,-111.2599
Arizona,Corona de Tucson,31.9503,-110.7835
Arizona,Winslow,35.0242,-110.7093
Arizona,Golden Valley,35.2061,-114.2328
Arizona,Tuba City,36.125,-111.2467
Arizona,Catalina,32.4848,-110.8997
Arizona,Wickenburg,33.9948,-112.7589
Arizona,Page,36.9418,-111.5133
Arizona,Globe,33.3936,-110.7411
Arizona,Tolleson,33.4484,-112.256
Arizona,Youngtown,33.585,-112.3049
Arizona,Litchfield Park,33.5018,-112.3595
Arizona,Williamson,34.7082,-112.5343
Arizona,Village of Oak Creek (Big Park),34.7813,-111.7606
Arizona,Snowflake,34.5215,-110.0912
Arizona,Doney Park,35.2656,-111.519
Arizona,Rincon Valley,32.1101,-110.6889
Arizona,Avra Valley,32.4195,-111.3393
Arizona,Paulden,34.8897,-112.4937
Arizona,Benson,31.9145,-110.3286
Arizona,Guadalupe,33.3665,-111.9632
Arizona,Thatcher,32.8127,-109.7665
Arizona,Citrus Park,33.5282,-112.4392
Arizona,Three Points,32.0596,-111.2865
Arizona,Lake Montezuma,34.6369,-111.8009
Arizona,Bisbee,31.398,-109.9318
Arizona,Cave Creek,33.8362,-111.9821
Arizona,Holbrook,34.9046,-110.1672
Arizona,Summit,32.0621,-110.9486
Arizona,Kayenta,36.7172,-110.2605
Arizona,South Tucson,32.1955,-110.9692
Arizona,Chinle,36.1511,-109.5787
Arizona,Whiteriver,33.8398,-109.9608
Arizona,Clarkdale,34.748,-112.0587
Arizona,Eagar,34.105,-109.297
Arizona,Dewey-Humboldt,34.5174,-112.2496
Arizona,Avenue B and C,32.719,-114.66
Arizona,Pinetop-Lakeside,34.1484,-109.966
Arizona,Taylor,34.4427,-110.0985
Arizona,San Carlos,33.3446,-110.4777
Arizona,Clifton,33.0296,-109.284
Arizona,Carefree,33.8232,-111.9133
Arizona,Lake of the Woods,34.1526,-109.9943
Arizona,Fort Defiance,35.7475,-109.068
Arizona,Parker,34.034,-114.2282
Arizona,St. Johns,34.5004,-109.3769
Arizona,Cornville,34.739,-111.9086
Arizona,Sacaton,33.0793,-111.7682
Arizona,Whetstone,31.7189,-110.292
Arizona,Willcox,32.2518,-109.8357
Arizona,Williams,35.2466,-112.1833
Arizona,San Manuel,32.606,-110.6471
Arizona,Oracle,32.6085,-110.7826
Arizona,Ajo,32.3923,-112.8839
Arizona,Heber-Overgaard,34.4141,-110.5696
Arizona,Pima,32.8919,-109.8443
Arizona,Swift Trail Junction,32.7272,-109.7181
Arizona,Desert Hills,34.5465,-114.378
Arizona,Linden,34.2696,-110.1364
Arizona,Mohave Valley,34.9024,-114.5714
Arizona,Cordes Lakes,34.3103,-112.1073
Arizona,Black Canyon City,34.071,-112.122
Arizona,Red Rock,32.5612,-111.374
Arizona,Timberline-Fernwood,35.3167,-111.5507
Arizona,Kachina Village,35.0924,-111.696
Arizona,Window Rock,35.6705,-109.063
Arizona,Star Valley,34.2547,-111.2207
Arizona,Colorado City,36.9701,-112.9853
Arizona,Quartzsite,33.6675,-114.217
Arizona,Superior,33.2851,-111.1109
Arizona,Wellton,32.6401,-114.2152
Arizona,White Mountain Lake,34.344,-109.9868
Arizona,Central Heights-Midland City,33.4,-110.8153
Arizona,Rio Verde,33.7266,-111.6758
Arizona,Sells,31.9209,-111.8709
Arizona,Morenci,33.0582,-109.3331
Arizona,Pine,34.3803,-111.4605
Arizona,Bagdad,34.5771,-113.177
Arizona,Golden Shores,34.7819,-114.4777
Arizona,Gila Bend,32.9662,-112.7155
Arizona,Wagon Wheel,34.1975,-110.0271
Arizona,Cibecue,34.0304,-110.492
Arizona,Congress,34.1534,-112.8656
Arizona,Valle Vista,35.4109,-113.8627
Arizona,Grand Canyon Village,36.0595,-112.1579
Arizona,Bylas,33.1277,-110.1149
Arizona,Mescal,31.9674,-110.4366
Arizona,Kearny,33.0564,-110.9071
Arizona,Dolan Springs,35.5905,-114.2852
Arizona,Casa Blanca,33.1155,-111.9081
Arizona,Springerville,34.1719,-109.3069
Arizona,Cienega Springs,34.1997,-114.2127
Arizona,Fort Valley,35.3228,-111.7398
Arizona,Red Lake,35.3615,-112.1721
Arizona,St. David,31.886,-110.2215
Arizona,Huachuca City,31.6308,-110.3422
Arizona,Tubac,31.6107,-111.057
Arizona,Centennial Park,36.9538,-112.9813
Arizona,Mayer,34.4234,-112.2408
Arizona,Beaver Dam,36.907,-113.9362
Arizona,Miami,33.3951,-110.8724
Arizona,Kaibito,36.592,-111.1071
Arizona,Cactus Flats,32.7605,-109.7213
Arizona,Mountain View Ranches,35.2336,-111.4728
Arizona,North Fork,34.0106,-109.9595
Arizona,Tonto Basin,33.8413,-111.3009
Arizona,Lukachukai,36.4112,-109.2255
Arizona,Meadview,35.9532,-114.0789
Arizona,Pirtleville,31.3609,-109.5661
Arizona,Pinetop Country Club,34.1163,-109.891
Arizona,Tsaile,36.3024,-109.2187
Arizona,Claypool,33.4061,-110.8419
Arizona,St. Michaels,35.6606,-109.0962
Arizona,Parks,35.2852,-111.9672
Arizona,First Mesa,35.8317,-110.3689
Arizona,Fredonia,36.9616,-112.5164
Arizona,Scenic,36.7936,-114.0128
Arizona,Peridot,33.3033,-110.459
Arizona,Tombstone,31.7204,-110.0763
Arizona,Joseph City,34.9637,-110.329
Arizona,Donovan Estates,32.7094,-114.6781
Arizona,Many Farms,36.3429,-109.6376
Arizona,LeChee,36.8609,-111.4244
Arizona,Canyon Day,33.7789,-110.0382
Arizona,Dilkon,35.3529,-110.3072
Arizona,Blackwater,33.0396,-111.5799
Arizona,Bellemont,35.2425,-111.8138
Arizona,Salome,33.7778,-113.6061
Arizona,Spring Valley,34.3452,-112.1592
Arizona,Peach Springs,35.5314,-113.432
Arizona,Munds Park,34.9383,-111.629
Arizona,Pinon,36.0989,-110.2191
Arizona,Mammoth,32.6852,-110.7293
Arizona,Mountainaire,35.0938,-111.6452
Arizona,Willow Valley,34.9277,-114.6266
Arizona,Arizona Village,34.8548,-114.5893
Arizona,Kaibab Estates West,35.2748,-112.4985
Arizona,Komatke,33.2953,-112.1615
Arizona,Rainbow City,33.873,-109.9763
Arizona,Hotevilla-Bacavi,35.9207,-110.6407
Arizona,Arivaca Junction,31.739,-111.0738
Arizona,Queen Valley,33.2733,-111.3179
Arizona,Six Shooter Canyon,33.3668,-110.7746
Arizona,Strawberry,34.3909,-111.5027
Arizona,Leupp,35.2966,-111.0036
Arizona,Houck,35.2693,-109.2234
Arizona,Ak-Chin Village,33.0197,-112.0808
Arizona,Ganado,35.6919,-109.5557
Arizona,Wilhoit,34.4082,-112.6156
Arizona,Maricopa Colony,33.3626,-112.2268
Arizona,Second Mesa,35.8514,-110.498
Arizona,Naco,31.346,-109.9271
Arizona,Hondah,34.0943,-109.9344
Arizona,Patagonia,31.5447,-110.7455
Arizona,Sonoita,31.6656,-110.6391
Arizona,Sunsites,31.9417,-109.8408
Arizona,Mesa del Caballo,34.286,-111.2952
Arizona,Moenkopi,36.1125,-111.2212
Arizona,Chilchinbito,36.492,-110.0492
Arizona,Whitecone,35.6047,-110.08
Arizona,Ehrenberg,33.6142,-114.483
Arizona,Valle,35.6752,-112.1529
Arizona,Central,32.8692,-109.7908
Arizona,Seven Mile,33.7882,-109.9586
Arizona,Kykotsmovi Village,35.8102,-110.6568
Arizona,Cameron,35.8532,-111.4286
Arizona,Shongopovi,35.8097,-110.5334
Arizona,Bouse,33.8984,-113.9962
Arizona,Duncan,32.75,-109.0884
Arizona,St. Johns,33.3085,-112.1974
Arizona,Wittmann,33.775,-112.5251
Arizona,Bluewater,34.1704,-114.2629
Arizona,East Fork,33.8107,-109.921
Arizona,Upper Santan Village,33.1153,-111.7419
Arizona,J-Six Ranchettes,31.9666,-110.4664
Arizona,Round Rock,36.5043,-109.4632
Arizona,Gila Crossing,33.273,-112.1627
Arizona,Low Mountain,35.9481,-110.1005
Arizona,Arivaca,31.5749,-111.2926
Arizona,Parker Strip,34.2707,-114.1297
Arizona,Stotonic Village,33.1528,-111.8167
Arizona,Cactus Forest,32.9578,-111.3169
Arizona,Tusayan,35.955,-112.1202
Arizona,York,32.9174,-109.196
Arizona,Dudleyville,32.86,-110.7165
Arizona,Blue Ridge,34.6407,-111.1074
Arizona,Elephant Head,31.7659,-110.992
Arizona,Young,34.1241,-110.9383
Arizona,Dennehotso,36.829,-109.8757
Arizona,Sacaton Flats Village,33.0559,-111.659
Arizona,Sanders,35.2096,-109.3224
Arizona,Icehouse Canyon,33.3461,-110.8012
Arizona,Rancho Mesa Verde,32.5944,-114.6551
Arizona,Miracle Valley,31.3829,-110.1485
Arizona,Gadsden,32.5564,-114.781
Arizona,Walnut Creek,35.1312,-114.1266
Arizona,Yarnell,34.2282,-112.7631
Arizona,Aguila,33.9375,-113.1665
Arizona,Sawmill,35.8941,-109.1572
Arizona,Stanfield,32.8794,-111.9628
Arizona,Wheatfields,33.4709,-110.8161
Arizona,Rock Point,36.6968,-109.6195
Arizona,Gisela,34.1018,-111.288
Arizona,Circle City,33.8149,-112.581
Arizona,Hayden,32.9949,-110.7799
Arizona,Teec Nos Pos,36.9333,-109.0641
Arizona,Nazlini,35.9112,-109.4747
Arizona,Peeples Valley,34.2772,-112.7653
Arizona,Orange Grove Mobile Manor,32.5985,-114.6606
Arizona,Burnside,35.7534,-109.6248
Arizona,Shonto,36.587,-110.6625
Arizona,McNary,34.0922,-109.8514
Arizona,Pinedale,34.3207,-110.2599
Arizona,Santa Rosa,32.3326,-112.0464
Arizona,Lazy Y U,35.1369,-113.9685
Arizona,San Jose,32.818,-109.5948
Arizona,Cane Beds,36.9342,-112.9118
Arizona,Brenda,33.6721,-113.9379
Arizona,Jerome,34.7471,-112.1075
Arizona,Goodyear Village,33.1973,-111.8723
Arizona,Round Valley,34.1878,-111.3018
Arizona,Wenden,33.8324,-113.5432
Arizona,Winslow West,34.9926,-110.7068
Arizona,Pinal,33.3801,-110.7572
Arizona,Tonalea,36.3217,-110.9667
Arizona,Roosevelt Estates,33.6202,-110.9998
Arizona,Seligman,35.3256,-112.8572
Arizona,Oak Creek Canyon,34.9489,-111.7504
Arizona,Lower Santan Village,33.1428,-111.7853
Arizona,Rough Rock,36.4095,-109.8684
Arizona,So-Hi,35.2527,-114.1415
Arizona,Tacna,32.7004,-113.9618
Arizona,Elfrida,31.6788,-109.6878
Arizona,Tees Toh,35.486,-110.4056
Arizona,Vicksburg,33.7272,-113.8259
Arizona,Bowie,32.3248,-109.4845
Arizona,Mesquite Creek,34.9607,-114.5714
Arizona,Solomon,32.8138,-109.6289
Arizona,Greenehaven,36.996,-111.5566
Arizona,Turkey Creek,33.8011,-109.9461
Arizona,Cedar Creek,33.8914,-110.1957
Arizona,Greasewood,35.5286,-109.8609
Arizona,La Paz Valley,33.5582,-114.2435
Arizona,Ash Fork,35.2172,-112.4913
Arizona,Pisinemo,32.0349,-112.3192
Arizona,Bitter Springs,36.6118,-111.6475
Arizona,Red Mesa,36.9711,-109.3698
Arizona,Shumway,34.4145,-110.0649
Arizona,Jeddito,35.7682,-110.1278
Arizona,White Hills,35.7242,-114.4004
Arizona,Clay Springs,34.3593,-110.3043
Arizona,Tumacacori-Carmen,31.571,-111.0477
Arizona,El Prado Estates,32.7062,-114.5215
Arizona,Fort Thomas,33.0304,-109.9613
Arizona,Yuma Proving Ground,32.8652,-114.4369
Arizona,Wet Camp Village,33.1414,-111.9004
Arizona,Winkelman,32.9817,-110.7617
Arizona,Keams Canyon,35.8208,-110.2037
Arizona,Wall Lane,32.6573,-114.7105
Arizona,Sacate Village,33.1416,-111.9811
Arizona,East Globe,33.3511,-110.706
Arizona,Del Muerto,36.1869,-109.4348
Arizona,Dateland,32.8209,-113.5418
Arizona,Littlefield,36.8659,-113.936
Arizona,Picacho,32.7102,-111.4942
Arizona,Crystal Beach,34.5714,-114.3926
Arizona,Nelson,32.4298,-111.2649
Arizona,Chuichu,32.7403,-111.7822
Arizona,Steamboat,35.7526,-109.8506
Arizona,Sunizona,31.8855,-109.6332
Arizona,Topawa,31.8078,-111.8305
Arizona,Indian Wells,35.4092,-110.1144
Arizona,Deer Creek,34.0623,-111.3495
Arizona,Chloride,35.4097,-114.1972
Arizona,Tolani Lake,35.431,-110.8432
Arizona,Beaver Valley,34.3429,-111.2999
Arizona,Drysdale,32.6452,-114.7068
Arizona,Palominas,31.3876,-110.1151
Arizona,Cornfields,35.6513,-109.6758
Arizona,Tonto Village,34.3198,-111.1393
Arizona,San Miguel,31.6295,-111.7801
Arizona,Cibola,33.3741,-114.6763
Arizona,Amado,31.6974,-111.0608
Arizona,Oxbow Estates,34.1803,-111.343
Arizona,Top-of-the-World,33.3477,-110.9997
Arizona,Morristown,33.8559,-112.6129
Arizona,Poston,33.9921,-114.4046
Arizona,McNeal,31.6101,-109.6583
Arizona,Klagetoh,35.5,-109.5305
Arizona,Dragoon,32.0276,-110.0368
Arizona,South Komelik,31.7145,-111.7744
Arizona,Bryce,32.9258,-109.8231
Arizona,Wellton Hills,32.6232,-114.1452
Arizona,Cottonwood,36.0724,-109.8902
Arizona,Clacks Canyon,35.2204,-114.0723
Arizona,Kino Springs,31.3641,-110.8097
Arizona,Kleindale,32.2681,-110.9146
Arizona,Elgin,31.6666,-110.5327
Arizona,San Simon,32.2682,-109.2302
Arizona,Copper Hill,33.4309,-110.7465
Arizona,Pinion Pines,35.1466,-113.9058
Arizona,Forest Lakes,34.3299,-110.8107
Arizona,Woodruff,34.7919,-110.0259
Arizona,Sun Valley,34.9829,-110.032
Arizona,Sehili,36.2808,-109.1855
Arizona,East Verde Estates,34.2983,-111.3646
Arizona,Arlington,33.3346,-112.7748
Arizona,Anegam,32.3742,-112.035
Arizona,Alpine,33.8455,-109.1437
Arizona,Dripping Springs,33.105,-110.7551
Arizona,Pine Lake,35.0887,-113.8739
Arizona,Kaibab,36.8797,-112.7256
Arizona,Red Rock,36.6011,-109.0645
Arizona,Wikieup,34.693,-113.5995
Arizona,Padre Ranchitos,32.6496,-114.6416
Arizona,Antares,35.423,-113.8083
Arizona,Maish Vaya,32.1703,-112.1342
Arizona,Vernon,34.2479,-109.6899
Arizona,Seba Dalkai,35.4789,-110.4511
Arizona,Gu Oidak,31.9206,-112.0235
Arizona,Whispering Pines,34.3727,-111.2812
Arizona,Sweet Water Village,33.12,-111.8379
Arizona,Why,32.259,-112.7306
Arizona,Christopher Creek,34.3207,-111.0071
Arizona,Ali Chuk,31.8169,-112.5584
Arizona,Oljato-Monument Valley,36.9872,-110.2096
Arizona,Fort Apache,33.7901,-109.9886
Arizona,Ali Chukson,31.9115,-111.8016
Arizona,Theba,32.9182,-112.8898
Arizona,Cowlic,31.8047,-111.9876
Arizona,Rye,34.0978,-111.3543
Arizona,Truxton,35.4904,-113.563
Arizona,Hackberry,35.3401,-113.7256
Arizona,Oatman,35.0274,-114.3839
Arizona,Jakes Corner,34.0083,-111.3202
Arizona,Yucca,34.863,-114.1461
Arizona,Martinez Lake,32.9755,-114.4682
Arizona,Rillito,32.4157,-111.1549
Arizona,Vaiva Vo,32.7167,-111.9269
Arizona,Utting,33.8544,-113.9129
Arizona,Carrizo,33.9794,-110.3311
Arizona,Freedom Acres,34.3199,-111.3052
Arizona,Mormon Lake,34.9111,-111.4552
Arizona,Wahak Hotrontk,32.1747,-112.3663
Arizona,Washington Park,34.4004,-111.271
Arizona,Cutter,33.3584,-110.6593
Arizona,Kaka,32.5114,-112.3166
Arizona,Campo Bonito,32.5629,-110.6984
Arizona,Katherine,35.2208,-114.5613
Arizona,Franklin,32.677,-109.0721
Arizona,Haivana Nakya,32.0052,-111.7124
Arizona,Beyerville,31.392,-110.8749
Arizona,Summerhaven,32.4416,-110.7766
Arizona,Buckshot,32.7403,-114.4831
Arizona,McConnico,35.1636,-114.0897
Arizona,Ali Molina,31.9025,-111.7804
Arizona,Greer,34.0058,-109.4606
Arizona,Concho,34.4716,-109.614
Arizona,Oak Springs,35.4761,-109.1318
Arizona,Moccasin,36.9098,-112.7545
Arizona,Mojave Ranch Estates,34.9449,-114.5906
Arizona,Ventana,32.468,-112.2434
Arizona,Hunter Creek,34.307,-111.0165
Arizona,Wintersburg,33.4187,-112.8665
Arizona,Ak Chin,32.2873,-112.0091
Arizona,Chiawuli Tak,31.941,-111.7765
Arizona,El Capitan,33.2383,-110.7833
Arizona,Comobabi,32.0538,-111.8029
Arizona,Ko Vaya,32.0815,-111.8959
Arizona,Mead Ranch,34.3461,-111.1428
Arizona,Santa Cruz,33.2327,-112.1594
Arizona,Nutrioso,33.9514,-109.2059
Arizona,Valentine,35.3885,-113.6591
Arizona,Hard Rock,36.0302,-110.5042
Arizona,Kohatk,32.5783,-112.003
Arizona,Haigler Creek,34.2196,-110.9714
Arizona,Flowing Springs,34.3093,-111.3347
Arizona,Geronimo Estates,34.3694,-111.3618
Arizona,Kohls Ranch,34.3211,-111.0839
Arizona,Charco,32.2473,-112.6001
Arizona,Roosevelt,33.6574,-111.1271
Arizona,Tonopah,33.488,-112.9308
Arizona,Crozier,35.4228,-113.6486
Arizona,Wide Ruins,35.4174,-109.4996
Arizona,Lupton,35.3547,-109.0528
Arizona,Tat Momoli,32.6012,-111.8861
Arizona,Nolic,32.0342,-111.955
Arizona,Bear Flat,34.2924,-111.0674
Arizona,Rock House,33.6307,-110.9411
Arizona,Sunwest,33.651,-113.4091
Arizona,Alamo Lake,34.2559,-113.5003
Arizona,Topock,34.72,-114.4788
Arizona,Aztec,32.8081,-113.4427
Arizona,Willow Canyon,32.3881,-110.701
Arizona,Toyei,35.7038,-109.9382
Arkansas,Little Rock,34.724,-92.3576
Arkansas,Fayetteville,36.0715,-94.1666
Arkansas,Fort Smith,35.3493,-94.3709
Arkansas,Springdale,36.1901,-94.1594
Arkansas,Jonesboro,35.8198,-90.679
Arkansas,Rogers,36.3181,-94.1523
Arkansas,North Little Rock,34.7818,-92.2351
Arkansas,Conway,35.0744,-92.4671
Arkansas,Bentonville,36.353,-94.2503
Arkansas,Pine Bluff,34.2116,-92.0176
Arkansas,Hot Springs,34.4894,-93.0503
Arkansas,Benton,34.5774,-92.5726
Arkansas,Sherwood,34.852,-92.2045
Arkansas,Bella Vista,36.4666,-94.2663
Arkansas,Paragould,36.0523,-90.5105
Arkansas,Jacksonville,34.8805,-92.1306
Arkansas,Texarkana,33.4363,-93.9871
Arkansas,Russellville,35.2763,-93.1387
Arkansas,Cabot,34.9751,-92.0283
Arkansas,West Memphis,35.1496,-90.1993
Arkansas,Van Buren,35.4512,-94.354
Arkansas,Searcy,35.2411,-91.7352
Arkansas,Bryant,34.6151,-92.4913
Arkansas,Maumelle,34.8523,-92.4
Arkansas,Centerton,36.3551,-94.2977
Arkansas,El Dorado,33.219,-92.6641
Arkansas,Siloam Springs,36.1846,-94.5315
Arkansas,Hot Springs Village,34.6581,-92.9686
Arkansas,Marion,35.2042,-90.2067
Arkansas,Blytheville,35.9341,-89.9051
Arkansas,Harrison,36.2426,-93.1177
Arkansas,Forrest City,35.0136,-90.7932
Arkansas,Mountain Home,36.3351,-92.3841
Arkansas,Batesville,35.7686,-91.6227
Arkansas,Magnolia,33.2767,-93.2262
Arkansas,Malvern,34.3736,-92.8212
Arkansas,Camden,33.5677,-92.8491
Arkansas,Arkadelphia,34.1274,-93.0709
Arkansas,Lowell,36.2559,-94.1534
Arkansas,Helena-West Helena,34.5313,-90.6201
Arkansas,Greenwood,35.2113,-94.2394
Arkansas,Clarksville,35.4539,-93.4816
Arkansas,Hope,33.6682,-93.5889
Arkansas,Monticello,33.6248,-91.7937
Arkansas,Beebe,35.0724,-91.9011
Arkansas,Wynne,35.2353,-90.7884
Arkansas,Stuttgart,34.4952,-91.5486
Arkansas,Newport,35.6238,-91.2317
Arkansas,Farmington,36.0366,-94.2525
Arkansas,Trumann,35.677,-90.5259
Arkansas,Pocahontas,36.2636,-90.9702
Arkansas,East End,34.5545,-92.3275
Arkansas,Prairie Grove,35.9861,-94.3034
Arkansas,Morrilton,35.1555,-92.7389
Arkansas,Osceola,35.6942,-89.9934
Arkansas,Heber Springs,35.4996,-92.0293
Arkansas,Pea Ridge,36.4467,-94.1208
Arkansas,De Queen,34.0422,-94.3421
Arkansas,Ward,35.0138,-91.9577
Arkansas,Alma,35.4924,-94.2137
Arkansas,Greenbrier,35.2288,-92.3836
Arkansas,Berryville,36.371,-93.5704
Arkansas,Mena,34.5808,-94.2371
Arkansas,White Hall,34.2752,-92.1006
Arkansas,Cave Springs,36.2684,-94.2195
Arkansas,Warren,33.6118,-92.0677
Arkansas,Walnut Ridge,36.0848,-90.9467
Arkansas,Piney,34.5029,-93.1444
Arkansas,Sheridan,34.3216,-92.4431
Arkansas,Crossett,33.1268,-91.963
Arkansas,Barling,35.3313,-94.2752
Arkansas,Cherokee Village,36.2913,-91.5694
Arkansas,Rockwell,34.4643,-93.1338
Arkansas,Dardanelle,35.2263,-93.1659
Arkansas,Shannon Hills,34.6176,-92.4022
Arkansas,Tontitown,36.1674,-94.2421
Arkansas,Vilonia,35.0787,-92.2154
Arkansas,Southside,35.7202,-91.6302
Arkansas,Lonoke,34.7905,-91.9074
Arkansas,Ashdown,33.6745,-94.1266
Arkansas,Nashville,33.9419,-93.8517
Arkansas,Gibson,34.9022,-92.2408
Arkansas,Brookland,35.8971,-90.5717
Arkansas,Dumas,33.8834,-91.4856
Arkansas,Haskell,34.5092,-92.6419
Arkansas,McGehee,33.628,-91.3953
Arkansas,Booneville,35.1393,-93.9175
Arkansas,Gentry,36.2596,-94.4909
Arkansas,Manila,35.8848,-90.1654
Arkansas,Piggott,36.3872,-90.1989
Arkansas,Johnson,36.1339,-94.1743
Arkansas,Elkins,36.0172,-94.0235
Arkansas,Landmark,34.6104,-92.316
Arkansas,Marianna,34.7736,-90.7675
Arkansas,Gravette,36.4283,-94.3685
Arkansas,Ozark,35.5019,-93.8484
Arkansas,Austin,35.0059,-91.9896
Arkansas,Fordyce,33.8181,-92.4174
Arkansas,Waldron,34.9033,-94.0948
Arkansas,Alexander,34.6186,-92.4512
Arkansas,Corning,36.4137,-90.5836
Arkansas,Paris,35.2891,-93.7249
Arkansas,Pottsville,35.2306,-93.0608
Arkansas,Prescott,33.8043,-93.3912
Arkansas,DeWitt,34.2874,-91.3383
Arkansas,Little Flock,36.3833,-94.1373
Arkansas,Bethel Heights,36.2212,-94.1298
Arkansas,Green Forest,36.3347,-93.431
Arkansas,Gosnell,35.9649,-89.9686
Arkansas,Huntsville,36.0987,-93.7332
Arkansas,Mountain View,35.8616,-92.1097
Arkansas,Atkins,35.2409,-92.9496
Arkansas,North Crossett,33.1741,-91.9317
Arkansas,Brinkley,34.8898,-91.1898
Arkansas,Hoxie,36.036,-90.9736
Arkansas,Charleston,35.2945,-94.0484
Arkansas,Salem,34.6309,-92.5615
Arkansas,Hamburg,33.2248,-91.7972
Arkansas,Holiday Island,36.4817,-93.713
Arkansas,Bald Knob,35.3125,-91.5713
Arkansas,Clinton,35.579,-92.4557
Arkansas,England,34.5454,-91.9674
Arkansas,Lavaca,35.3302,-94.1829
Arkansas,Horseshoe Bend,36.2187,-91.7383
Arkansas,Bono,35.9111,-90.8008
Arkansas,Elm Springs,36.2062,-94.2379
Arkansas,West Fork,35.9349,-94.1811
Arkansas,Lake City,35.8194,-90.4539
Arkansas,Lincoln,35.9488,-94.4175
Arkansas,Marked Tree,35.5279,-90.4266
Arkansas,Prairie Creek,36.3295,-94.0589
Arkansas,Harrisburg,35.5638,-90.7216
Arkansas,Star City,33.9408,-91.84
Arkansas,Gassville,36.2849,-92.4868
Arkansas,Eureka Springs,36.4108,-93.7449
Arkansas,Fairfield Bay,35.6011,-92.2662
Arkansas,Goshen,36.1025,-94.0016
Arkansas,Lake Hamilton,34.4296,-93.0764
Arkansas,Glenwood,34.3283,-93.5273
Arkansas,Lake Village,33.3292,-91.2848
Arkansas,Leachville,35.9115,-90.255
Arkansas,Carlisle,34.7954,-91.7405
Arkansas,Danville,35.0525,-93.3912
Arkansas,Dermott,33.5262,-91.4323
Arkansas,Augusta,35.2866,-91.3609
Arkansas,Mayflower,34.9803,-92.4194
Arkansas,Bull Shoals,36.3736,-92.5915
Arkansas,Cave City,35.9482,-91.5468
Arkansas,Des Arc,34.9784,-91.5068
Arkansas,Bay,35.7461,-90.5521
Arkansas,Rector,36.2642,-90.2935
Arkansas,Judsonia,35.2764,-91.6416
Arkansas,Gurdon,33.916,-93.1539
Arkansas,Earle,35.2734,-90.4643
Arkansas,Melbourne,36.064,-91.8815
Arkansas,Decatur,36.3411,-94.4513
Arkansas,Lepanto,35.6085,-90.333
Arkansas,Eudora,33.1189,-91.264
Arkansas,Lamar,35.4444,-93.3947
Arkansas,Tuckerman,35.7257,-91.2021
Arkansas,Smackover,33.3636,-92.7314
Arkansas,Highfill,36.2744,-94.3239
Arkansas,McCrory,35.2573,-91.1973
Arkansas,Salem,36.3704,-91.8217
Arkansas,Mulberry,35.5085,-94.0748
Arkansas,Wrightsville,34.6207,-92.2196
Arkansas,Clarendon,34.6947,-91.3061
Arkansas,Monette,35.8932,-90.3441
Arkansas,Redfield,34.4393,-92.1885
Arkansas,Murfreesboro,34.0703,-93.6941
Arkansas,Hazen,34.7814,-91.5581
Arkansas,McAlmont,34.7925,-92.196
Arkansas,Cedarville,35.5831,-94.3616
Arkansas,Kensett,35.2352,-91.6713
Arkansas,Perryville,35.012,-92.8029
Arkansas,Flippin,36.2773,-92.5935
Arkansas,Dover,35.391,-93.1142
Arkansas,Marshall,35.9085,-92.6465
Arkansas,Avilla,34.6948,-92.5861
Arkansas,Stamps,33.355,-93.4979
Arkansas,Diaz,35.6488,-91.2589
Arkansas,Greenland,35.9962,-94.1909
Arkansas,Marmaduke,36.19,-90.3851
Arkansas,Hampton,33.5348,-92.4666
Arkansas,Newark,35.7076,-91.4434
Arkansas,Yellville,36.2288,-92.6861
Arkansas,Waldo,33.3519,-93.2954
Arkansas,West Crossett,33.148,-92.017
Arkansas,Ash Flat,36.2365,-91.6067
Arkansas,Caraway,35.7602,-90.3221
Arkansas,Oak Grove Heights,36.1264,-90.5034
Arkansas,Mineral Springs,33.8777,-93.9214
Arkansas,Hughes,34.9481,-90.4714
Arkansas,Mansfield,35.0639,-94.2343
Arkansas,Wooster,35.1998,-92.4503
Arkansas,Midway,36.3922,-92.4755
Arkansas,Sulphur Springs,34.1714,-92.1321
Arkansas,Kibler,35.4252,-94.2361
Arkansas,Mount Ida,34.5492,-93.6299
Arkansas,Highland,36.2694,-91.5198
Arkansas,Foreman,33.7195,-94.3977
Arkansas,Genoa,33.3775,-93.8824
Arkansas,Rison,33.96,-92.1936
Arkansas,Luxora,35.7577,-89.9295
Arkansas,London,35.3276,-93.2435
Arkansas,Ola,35.0314,-93.224
Arkansas,Mammoth Spring,36.4924,-91.5411
Arkansas,Horatio,33.9427,-94.3562
Arkansas,Dierks,34.12,-94.0173
Arkansas,Lewisville,33.3601,-93.584
Arkansas,Tumbling Shoals,35.5471,-91.9675
Arkansas,Calico Rock,36.122,-92.1259
Arkansas,Cotter,36.2819,-92.5208
Arkansas,Marvell,34.5563,-90.9153
Arkansas,Sardis,34.533,-92.4067
Arkansas,Greers Ferry,35.575,-92.166
Arkansas,Coal Hill,35.438,-93.6652
Arkansas,Roland,34.9022,-92.5175
Arkansas,Fouke,33.2622,-93.8852
Arkansas,East Camden,33.6084,-92.7445
Arkansas,Parkin,35.2612,-90.5535
Arkansas,Hackett,35.188,-94.4103
Arkansas,Cammack Village,34.7808,-92.345
Arkansas,Bearden,33.7277,-92.6187
Arkansas,Lakeview,36.3739,-92.5387
Arkansas,Dyer,35.4944,-94.1388
Arkansas,Stephens,33.4209,-93.0696
Arkansas,Norphlet,33.3199,-92.662
Arkansas,Wilson,35.566,-90.0418
Arkansas,Madison,35.018,-90.7311
Arkansas,Diamond City,36.4576,-92.911
Arkansas,Guy,35.3273,-92.3367
Arkansas,Keiser,35.674,-90.0958
Arkansas,Hardy,36.3196,-91.4815
Arkansas,Magazine,35.1539,-93.8079
Arkansas,Oppelo,35.1006,-92.7736
Arkansas,Plumerville,35.1594,-92.6431
Arkansas,Swifton,35.8245,-91.1294
Arkansas,Kirby,34.2543,-93.6549
Arkansas,Tyronza,35.4868,-90.356
Arkansas,Desha,35.7305,-91.6856
Arkansas,Sweet Home,34.6674,-92.2463
Arkansas,Higginson,35.1968,-91.7152
Arkansas,Altheimer,34.3274,-91.8473
Arkansas,Quitman,35.3817,-92.2147
Arkansas,Magnet Cove,34.4492,-92.8377
Arkansas,Ozark Acres,36.2999,-91.3871
Arkansas,Amity,34.2662,-93.4634
Arkansas,Bradford,35.422,-91.4552
Arkansas,Rockport,34.4071,-92.8067
Arkansas,Altus,35.4468,-93.7644
Arkansas,Gould,33.9872,-91.564
Arkansas,Knoxville,35.3775,-93.3618
Arkansas,Weiner,35.6197,-90.9053
Arkansas,Imboden,36.1997,-91.1774
Arkansas,Wickes,34.2997,-94.3273
Arkansas,Bauxite,34.5599,-92.4997
Arkansas,McRae,35.1136,-91.8262
Arkansas,Sulphur Rock,35.7516,-91.5003
Arkansas,Caddo Valley,34.1807,-93.0846
Arkansas,Lockesburg,33.9729,-94.1796
Arkansas,Garfield,36.4554,-93.9758
Arkansas,Black Rock,36.1062,-91.1075
Arkansas,Bonanza,35.2318,-94.4161
Arkansas,Holland,35.166,-92.277
Arkansas,Mountain Pine,34.5696,-93.1715
Arkansas,Taylor,33.0998,-93.4618
Arkansas,Cherry Valley,35.4028,-90.7536
Arkansas,Oxford,36.209,-91.9183
Arkansas,Gillett,34.1192,-91.3791
Arkansas,Jasper,36.0121,-93.1875
Arkansas,Summit,36.2522,-92.6883
Arkansas,Cotton Plant,35.0059,-91.252
Arkansas,Mountainburg,35.6496,-94.1624
Arkansas,Hermitage,33.4474,-92.1715
Arkansas,De Valls Bluff,34.7859,-91.4611
Arkansas,Turrell,35.3746,-90.2704
Arkansas,Hartman,35.4353,-93.6282
Arkansas,Elaine,34.3086,-90.8533
Arkansas,Palestine,34.9703,-90.9082
Arkansas,Junction City,33.0221,-92.7236
Arkansas,Pangburn,35.4261,-91.8394
Arkansas,Hartford,35.0234,-94.3794
Arkansas,Joiner,35.5074,-90.1507
Arkansas,Dennard,35.7479,-92.55
Arkansas,Grannis,34.2402,-94.322
Arkansas,Traskwood,34.4525,-92.6664
Arkansas,Rose Bud,35.3212,-92.0765
Arkansas,Huntington,35.0817,-94.2663
Arkansas,Avoca,36.3947,-94.0658
Arkansas,Tull,34.4412,-92.5859
Arkansas,Sulphur Springs,36.4841,-94.4601
Arkansas,Fountain Lake,34.6098,-92.9198
Arkansas,Salesville,36.2391,-92.2775
Arkansas,Salado,35.6954,-91.5923
Arkansas,College Station,34.7005,-92.2284
Arkansas,Plainview,34.9899,-93.2979
Arkansas,Norfork,36.2095,-92.2778
Arkansas,Humphrey,34.4224,-91.7025
Arkansas,Crawfordsville,35.2267,-90.3242
Arkansas,Central City,35.3364,-94.238
Arkansas,Leola,34.1701,-92.5914
Arkansas,Holly Grove,34.6015,-91.2003
Arkansas,Yarborough Landing,33.7188,-94.0093
Arkansas,Caldwell,35.0748,-90.8095
Arkansas,Huttig,33.0403,-92.1797
Arkansas,Gateway,36.4889,-93.9331
Arkansas,Cushman,35.8658,-91.7781
Arkansas,Calion,33.3284,-92.5402
Arkansas,Bergman,36.3128,-93.0112
Arkansas,Ravenden,36.2432,-91.2513
Arkansas,Portia,36.0849,-91.071
Arkansas,Evening Shade,36.0699,-91.6219
Arkansas,Lafe,36.2092,-90.5043
Arkansas,Wilmot,33.057,-91.5779
Arkansas,Emmet,33.7225,-93.4662
Arkansas,Natural Steps,34.8743,-92.4978
Arkansas,Bellefonte,36.1999,-93.047
Arkansas,Jones Mills,34.4449,-92.9015
Arkansas,Hector,35.4629,-92.9791
Arkansas,Strong,33.1079,-92.3556
Arkansas,Bradley,33.1001,-93.6569
Arkansas,Subiaco,35.2974,-93.6394
Arkansas,Appleton,35.4108,-92.8753
Arkansas,Lost Bridge Village,36.3897,-93.9155
Arkansas,Wilmar,33.6264,-91.9293
Arkansas,Reyno,36.3609,-90.759
Arkansas,Oak Grove,36.4643,-93.4302
Arkansas,Damascus,35.3671,-92.4107
Arkansas,McNeil,33.3479,-93.2084
Arkansas,Maynard,36.4215,-90.9018
Arkansas,Floyd,35.1989,-91.9645
Arkansas,Midway,34.2499,-92.9734
Arkansas,Arkansas City,33.6089,-91.2049
Arkansas,Acorn,34.6388,-94.2001
Arkansas,Leslie,35.8295,-92.556
Arkansas,Alpena,36.2928,-93.3037
Arkansas,Winslow,35.8015,-94.1318
Arkansas,Viola,36.3992,-91.987
Arkansas,Sparkman,33.9172,-92.85
Arkansas,Western Grove,36.1011,-92.9546
Arkansas,Mount Pleasant,35.9814,-91.7774
Arkansas,Bigelow,34.9976,-92.6314
Arkansas,Pleasant Plains,35.5546,-91.6273
Arkansas,Kingsland,33.858,-92.2978
Arkansas,Woodson,34.5397,-92.2225
Arkansas,Hatfield,34.4845,-94.3799
Arkansas,Thornton,33.7749,-92.4877
Arkansas,Vanndale,35.3153,-90.7711
Arkansas,Dyess,35.5893,-90.2133
Arkansas,Clarkedale,35.297,-90.2103
Arkansas,Batavia,36.2479,-93.2158
Arkansas,Lake View,34.4212,-90.8133
Arkansas,Portland,33.2379,-91.5109
Arkansas,Cove,34.439,-94.4223
Arkansas,Enola,35.1959,-92.2066
Arkansas,Twin Groves,35.3292,-92.4057
Arkansas,Belleville,35.0915,-93.4458
Arkansas,Armorel,35.9256,-89.798
Arkansas,Patterson,35.259,-91.235
Arkansas,Henderson,36.3772,-92.2189
Arkansas,Pearcy,34.4355,-93.2882
Arkansas,Cincinnati,36.0453,-94.5273
Arkansas,Grady,34.0788,-91.6976
Arkansas,Fredonia (Biscoe),34.8194,-91.4102
Arkansas,Biggers,36.3314,-90.8007
Arkansas,Norman,34.459,-93.6768
Arkansas,Grubbs,35.654,-91.0755
Arkansas,Branch,35.3083,-93.9554
Arkansas,Colt,35.1329,-90.8129
Arkansas,Emerson,33.0973,-93.196
Arkansas,Bee Branch,35.4626,-92.401
Arkansas,Mitchellville,33.9053,-91.4984
Arkansas,Center Ridge,35.3807,-92.5756
Arkansas,Prattsville,34.3185,-92.5431
Arkansas,Blevins,33.8713,-93.5782
Arkansas,Delight,34.0295,-93.5066
Arkansas,Wilton,33.7387,-94.148
Arkansas,Centerville,35.1157,-93.1715
Arkansas,Cash,35.8012,-90.9316
Arkansas,Wheatley,34.9212,-91.1063
Arkansas,Donaldson,34.235,-92.9195
Arkansas,Menifee,35.1497,-92.5504
Arkansas,Lead Hill,36.4136,-92.9072
Arkansas,Rosston,33.588,-93.2869
Arkansas,Strawberry,35.9665,-91.3211
Arkansas,El Paso,35.1153,-92.0812
Arkansas,Horseshoe Lake,34.9138,-90.3077
Arkansas,Morrow,35.8563,-94.4306
Arkansas,Poyen,34.3242,-92.642
Arkansas,Perry,35.0462,-92.7944
Arkansas,Lawson,33.2,-92.4879
Arkansas,Lynn,36.0043,-91.252
Arkansas,Perla,34.3648,-92.7762
Arkansas,Almyra,34.4057,-91.4108
Arkansas,Etowah,35.7158,-90.2307
Arkansas,Chidester,33.7019,-93.0238
Arkansas,Shirley,35.6438,-92.3135
Arkansas,Scranton,35.3604,-93.5397
Arkansas,Montrose,33.2989,-91.4964
Arkansas,Edmondson,35.105,-90.3055
Arkansas,Payneway,35.5457,-90.5123
Arkansas,Letona,35.3635,-91.8295
Arkansas,Havana,35.1098,-93.526
Arkansas,Fox,35.7844,-92.2996
Arkansas,Briarcliff,36.272,-92.2821
Arkansas,Pleasant Grove,35.8205,-91.907
Arkansas,Black Oak,35.8365,-90.3676
Arkansas,Campbell Station,35.6678,-91.2538
Arkansas,Perrytown,33.6971,-93.5324
Arkansas,Bismarck,34.3218,-93.1781
Arkansas,Hickory Ridge,35.4028,-90.9945
Arkansas,Midland,35.0924,-94.353
Arkansas,Oil Trough,35.6292,-91.4612
Arkansas,Springfield,35.2729,-92.555
Arkansas,Carthage,34.0726,-92.5553
Arkansas,Magness,35.7031,-91.4822
Arkansas,Humnoke,34.5422,-91.7597
Arkansas,St. Francis,36.4549,-90.1422
Arkansas,Poplar Grove,34.5522,-90.8542
Arkansas,Widener,35.0235,-90.6819
Arkansas,Garner,35.1425,-91.7792
Arkansas,Harrell,33.5099,-92.4001
Arkansas,Keo,34.6093,-92.0116
Arkansas,St. Charles,34.373,-91.1374
Arkansas,Lexa,34.5982,-90.7519
Arkansas,Denning,35.4252,-93.7568
Arkansas,Bethesda,35.7871,-91.7927
Arkansas,Garland,33.361,-93.7142
Arkansas,Dell,35.8572,-90.0341
Arkansas,Pollard,36.4296,-90.2671
Arkansas,Sidney,36.0044,-91.6583
Arkansas,O'Kean,36.1715,-90.8183
Arkansas,Franklin,36.1727,-91.7697
Arkansas,Concord,35.6663,-91.8606
Arkansas,Watson,33.8937,-91.2571
Arkansas,Tollette,33.8181,-93.8969
Arkansas,Sunset,35.224,-90.2056
Arkansas,Russell,35.3621,-91.5099
Arkansas,Valley Springs,36.1538,-92.9897
Arkansas,Pyatt,36.2507,-92.8466
Arkansas,Wabbaseka,34.3598,-91.7938
Arkansas,Oden,34.6231,-93.7836
Arkansas,Fisher,35.4914,-90.9726
Arkansas,Center Point,34.0318,-93.9512
Arkansas,Moro,34.792,-90.988
Arkansas,Urbana,33.1585,-92.4454
Arkansas,Oak Grove,35.3648,-92.9642
Arkansas,Gilmore,35.414,-90.2956
Arkansas,Ulm,34.5762,-91.4617
Arkansas,Greenway,36.3406,-90.2221
Arkansas,Woodlawn,33.9667,-92.0452
Arkansas,New Blaine,35.2925,-93.4191
Arkansas,Tillar,33.711,-91.4518
Arkansas,Parkdale,33.1212,-91.5464
Arkansas,West Point,35.2033,-91.6099
Arkansas,Newhope,34.2223,-93.8774
Arkansas,Ratcliff,35.3069,-93.8886
Arkansas,Summers,35.9872,-94.4829
Arkansas,Boles,34.7881,-94.0494
Arkansas,Buckner,33.3573,-93.4356
Arkansas,Sedgwick,35.9742,-90.8621
Arkansas,Rondo,34.6574,-90.8208
Arkansas,Wesley,36.0325,-93.9186
Arkansas,Rover,34.9518,-93.409
Arkansas,Friendship,34.2243,-93.0037
Arkansas,Fifty-Six,35.9635,-92.2334
Arkansas,Gillham,34.1686,-94.313
Arkansas,Griffithville,35.1231,-91.645
Arkansas,Pineville,36.1611,-92.1065
Arkansas,Caulksville,35.3018,-93.8678
Arkansas,Louann,33.3915,-92.7922
Arkansas,Walcott,36.0461,-90.6705
Arkansas,Jacksonport,35.6422,-91.3079
Arkansas,Collins,33.5323,-91.5724
Arkansas,Adona,35.0399,-92.8991
Arkansas,Willisville,33.5161,-93.2937
Arkansas,Wayton,35.9194,-93.2596
Arkansas,Knobel,36.32,-90.6023
Arkansas,Drasco,35.6338,-91.9418
Arkansas,Chester,35.6778,-94.1778
Arkansas,Mount Vernon,35.2236,-92.124
Arkansas,Houston,35.0349,-92.6945
Arkansas,Alicia,35.8929,-91.0835
Arkansas,Hagarville,35.515,-93.3321
Arkansas,Ben Lomond,33.8291,-94.1233
Arkansas,Burdette,35.8153,-89.9464
Arkansas,Lacey,33.4503,-91.8496
Arkansas,Hensley,34.5104,-92.2095
Arkansas,Jerusalem,35.4076,-92.823
Arkansas,Winchester,33.7741,-91.4737
Arkansas,Ivan,33.902,-92.4332
Arkansas,Anthonyville,35.0398,-90.3403
Arkansas,Deer,35.828,-93.2196
Arkansas,Alpine,34.2269,-93.3783
Arkansas,McDougal,36.4365,-90.3907
Arkansas,New Edinburg,33.7562,-92.2404
Arkansas,Staves,34.0336,-92.2806
Arkansas,Wilburn,35.5088,-91.8884
Arkansas,Hattieville,35.2952,-92.7754
Arkansas,Ogden,33.5859,-94.0469
Arkansas,Reed,33.7017,-91.4458
Arkansas,Rudy,35.5275,-94.2404
Arkansas,St. Joe,36.026,-92.8013
Arkansas,Crystal Springs,34.5248,-93.3336
Arkansas,Omaha,36.4616,-93.19
Arkansas,Moorefield,35.7672,-91.5708
Arkansas,Saratoga,33.7437,-93.9043
Arkansas,Bassett,35.5356,-90.1294
Arkansas,Rye,33.7505,-91.9985
Arkansas,Mount Holly,33.3072,-92.9502
Arkansas,Haynes,34.8909,-90.7927
Arkansas,Bodcaw,33.5636,-93.393
Arkansas,Dora,35.4629,-94.4297
Arkansas,Casa,35.025,-93.0455
Arkansas,Ravenden Springs,36.3127,-91.2233
Arkansas,Bluff City,33.7351,-93.1246
Arkansas,Jennette,35.1581,-90.4188
Arkansas,Maysville,36.402,-94.589
Arkansas,Winthrop,33.8308,-94.3542
Arkansas,Fulton,33.6126,-93.8138
Arkansas,Vandervoort,34.3798,-94.3649
Arkansas,Higden,35.5664,-92.2052
Arkansas,Goodwin,34.9407,-91.0036
Arkansas,Egypt,35.8678,-90.9458
Arkansas,Antoine,34.0345,-93.4214
Arkansas,Uniontown,35.5852,-94.447
Arkansas,St. Paul,35.8268,-93.7673
Arkansas,Mount Judea,35.9262,-93.0568
Arkansas,Floral,35.5889,-91.7589
Arkansas,Marie,35.6129,-90.083
Arkansas,Fountain Hill,33.3575,-91.8511
Arkansas,Aubrey,34.7198,-90.898
Arkansas,Peach Orchard,36.2812,-90.6608
Arkansas,Everton,36.1541,-92.9095
Arkansas,Powhatan,36.0873,-91.1239
Arkansas,Hunter,35.0546,-91.1229
Arkansas,Lonsdale,34.545,-92.8106
Arkansas,Evansville,35.7906,-94.4888
Arkansas,Alix,35.422,-93.7288
Arkansas,Aplin,34.9675,-92.9813
Arkansas,Success,36.4545,-90.7226
Arkansas,Jericho,35.2877,-90.2305
Arkansas,Kingston,36.0567,-93.5147
Arkansas,Alleene,33.7648,-94.2622
Arkansas,Scott,34.6977,-92.0939
Arkansas,Okolona,34.0005,-93.3376
Arkansas,Black Springs,34.456,-93.7131
Arkansas,Pindall,36.0637,-92.8622
Arkansas,Tucker,34.4395,-91.9519
Arkansas,Washington,33.7729,-93.6833
Arkansas,Zinc,36.284,-92.9144
Arkansas,Ozone,35.6385,-93.4473
Arkansas,Gum Springs,34.0639,-93.0957
Arkansas,Hindsville,36.1477,-93.8649
Arkansas,Big Flat,36.0034,-92.4102
Arkansas,Daisy,34.2359,-93.7392
Arkansas,Blue Mountain,35.1318,-93.7167
Arkansas,Minturn,35.9764,-91.0272
Arkansas,Board Camp,34.5325,-94.0797
Arkansas,Coy,34.5405,-91.8713
Arkansas,Banks,33.5758,-92.2671
Arkansas,Smithville,36.0799,-91.3027
Arkansas,Allport,34.5399,-91.7839
Arkansas,South Lead Hill,36.3956,-92.9062
Arkansas,Felsenthal,33.0608,-92.149
Arkansas,Beedeville,35.4292,-91.1107
Arkansas,Springtown,36.2603,-94.4238
Arkansas,Georgetown,35.1267,-91.4539
Arkansas,Williford,36.2518,-91.3605
Arkansas,Morrison Bluff,35.382,-93.5189
Arkansas,Bowman,35.8168,-90.4962
Arkansas,Canehill,35.9138,-94.3973
Arkansas,Cherokee City,36.2947,-94.5768
Arkansas,Cale,33.6279,-93.2328
Arkansas,Oakland,36.4604,-92.5718
Arkansas,Pencil Bluff,34.6304,-93.735
Arkansas,Tupelo,35.3903,-91.2299
Arkansas,Nimmons,36.3063,-90.0951
Arkansas,Amagon,35.5632,-91.1094
Arkansas,Guion,35.9268,-91.9389
Arkansas,Roe,34.6311,-91.386
Arkansas,Beaver,36.474,-93.7773
Arkansas,Datto,36.3925,-90.7285
Arkansas,Oakhaven,33.7294,-93.6208
Arkansas,Delaplaine,36.2304,-90.7256
Arkansas,Patmos,33.5114,-93.567
Arkansas,Weldon,35.448,-91.2316
Arkansas,Fargo,34.954,-91.1797
Arkansas,McCaskill,33.9195,-93.6368
Arkansas,Fourche,34.9931,-92.6189
Arkansas,Edgemont,35.6007,-92.1964
Arkansas,Fair Oaks,35.248,-91.036
Arkansas,Waldenburg,35.5653,-90.9346
Arkansas,Sherrill,34.3851,-91.9518
Arkansas,LaGrange,34.6558,-90.7347
Arkansas,Monroe,34.734,-91.1068
Arkansas,Wiederkehr Village,35.4777,-93.7647
Arkansas,Ozan,33.8466,-93.7208
Arkansas,Tinsman,33.6292,-92.3533
Arkansas,Warm Springs,36.4831,-91.049
Arkansas,Whelen Springs,33.8331,-93.126
Arkansas,Blue Eye,36.4967,-93.3977
Arkansas,Rivervale,35.6759,-90.3445
Arkansas,Corinth,35.0695,-93.4201
Arkansas,Halley,33.5363,-91.3237
Arkansas,Gregory,35.1533,-91.3342
Arkansas,Oark,35.695,-93.575
Arkansas,Reader,33.7516,-93.1012
Arkansas,Caddo Gap,34.4025,-93.6179
Arkansas,Violet Hill,36.1529,-91.8397
Arkansas,Beirne,33.8882,-93.2062
Arkansas,Gamaliel,36.4519,-92.2369
Arkansas,Witts Springs,35.7703,-92.8823
Arkansas,Birdsong,35.4612,-90.2598
Arkansas,Ponca,36.0293,-93.3624
Arkansas,McNab,33.6609,-93.8323
Arkansas,Buffalo City,36.1691,-92.4381
Arkansas,Gilbert,35.991,-92.7162
Arkansas,Jerome,33.3986,-91.4698
Arkansas,Mellwood,34.2155,-90.9447
Arkansas,Victoria,35.7574,-90.0601
Arkansas,Mount Olive,36.0031,-92.0905
Arkansas,Indian Bay,34.3871,-91.0696
Arkansas,Oneida,34.4605,-90.7867
Arkansas,Princeton,33.9775,-92.6242
California,Los Angeles,34.0194,-118.4108
California,San Diego,32.815,-117.1356
California,San Jose,37.296,-121.8146
California,San Francisco,37.7272,-123.0322
California,Fresno,36.7827,-119.7934
California,Sacramento,38.5677,-121.4682
California,Long Beach,33.7808,-118.1682
California,Oakland,37.7698,-122.2257
California,Bakersfield,35.3536,-119.0369
California,Anaheim,33.8555,-117.7587
California,Stockton,37.9763,-121.3133
California,Riverside,33.9381,-117.3932
California,Santa Ana,33.7363,-117.8829
California,Irvine,33.6784,-117.7713
California,Chula Vista,32.6277,-117.0152
California,Fremont,37.4945,-121.9411
California,Santa Clarita,34.4141,-118.4947
California,San Bernardino,34.1411,-117.2946
California,Modesto,37.6375,-121.003
California,Moreno Valley,33.9233,-117.2057
California,Fontana,34.109,-117.4629
California,Oxnard,34.1994,-119.2075
California,Huntington Beach,33.698,-118.0038
California,Glendale,34.1814,-118.2458
California,Santa Rosa,38.4458,-122.7062
California,Elk Grove,38.4146,-121.385
California,Ontario,34.0376,-117.6044
California,Rancho Cucamonga,34.1233,-117.5642
California,Oceanside,33.2246,-117.3063
California,Lancaster,34.6936,-118.1753
California,Garden Grove,33.7788,-117.9605
California,Palmdale,34.591,-118.1054
California,Salinas,36.6902,-121.6338
California,Hayward,37.6268,-122.104
California,Corona,33.862,-117.5655
California,Sunnyvale,37.3858,-122.0263
California,Pomona,34.0585,-117.7611
California,Escondido,33.1331,-117.074
California,Roseville,38.7703,-121.3196
California,Torrance,33.8305,-118.3566
California,Fullerton,33.8857,-117.928
California,Visalia,36.328,-119.3285
California,Orange,33.787,-117.8613
California,Pasadena,34.1606,-118.138
California,Victorville,34.5277,-117.3536
California,Santa Clara,37.3646,-121.968
California,Thousand Oaks,34.1933,-118.8742
California,Simi Valley,34.2669,-118.7485
California,Vallejo,38.1069,-122.2623
California,Concord,37.9722,-122.0016
California,Berkeley,37.8657,-122.2987
California,Clovis,36.829,-119.6849
California,Fairfield,38.2621,-122.0324
California,East Los Angeles,34.0315,-118.1686
California,Richmond,37.9523,-122.3606
California,Antioch,37.9783,-121.7961
California,Carlsbad,33.1293,-117.2842
California,Downey,33.9382,-118.1309
California,Costa Mesa,33.6659,-117.9123
California,Murrieta,33.5721,-117.1904
California,San Buenaventura (Ventura),34.2678,-119.2542
California,Temecula,33.4931,-117.1317
California,Santa Maria,34.9331,-120.4436
California,West Covina,34.0559,-117.9099
California,El Monte,34.0746,-118.0291
California,Inglewood,33.9561,-118.3443
California,Burbank,34.1901,-118.3264
California,El Cajon,32.8017,-116.9605
California,San Mateo,37.5603,-122.3106
California,Jurupa Valley,34.0026,-117.4676
California,Daly City,37.6862,-122.4687
California,Rialto,34.1174,-117.3892
California,Norwalk,33.9076,-118.0835
California,Menifee,33.6899,-117.1844
California,Vacaville,38.3586,-121.9686
California,Chico,39.759,-121.8177
California,Hesperia,34.397,-117.3152
California,Vista,33.1896,-117.2386
California,Compton,33.894,-118.2275
California,Carson,33.8404,-118.2496
California,San Marcos,33.1326,-117.1699
California,Arden-Arcade,38.6023,-121.384
California,Mission Viejo,33.6093,-117.6565
California,Redding,40.5674,-122.3648
California,Santa Monica,34.0109,-118.4982
California,Tracy,37.7274,-121.4522
California,South Gate,33.9442,-118.1928
California,Chino,33.978,-117.6577
California,San Leandro,37.7034,-122.163
California,Westminster,33.7523,-117.9939
California,Hemet,33.7341,-116.9969
California,Indio,33.7316,-116.236
California,Santa Barbara,34.4006,-119.713
California,Hawthorne,33.9148,-118.3481
California,Livermore,37.687,-121.7598
California,Citrus Heights,38.6948,-121.288
California,Whittier,33.9668,-118.0201
California,Merced,37.3057,-120.4779
California,Lake Forest,33.6549,-117.6758
California,Newport Beach,33.5971,-117.8903
California,San Ramon,37.7653,-121.932
California,Redwood City,37.5153,-122.2137
California,Buena Park,33.8574,-118.0074
California,Manteca,37.7928,-121.2261
California,Alhambra,34.0836,-118.1364
California,Lakewood,33.8471,-118.1219
California,Mountain View,37.3997,-122.0793
California,Folsom,38.6666,-121.1416
California,Tustin,33.731,-117.8107
California,Milpitas,37.4331,-121.8909
California,Pleasanton,37.6672,-121.8812
California,Carmichael,38.6308,-121.3256
California,Rancho Cordova,38.5771,-121.2362
California,Napa,38.2979,-122.3007
California,Bellflower,33.8878,-118.1273
California,Upland,34.1161,-117.6599
California,Perris,33.7902,-117.2214
California,Chino Hills,33.943,-117.7256
California,Alameda,37.7419,-122.2599
California,Pittsburg,38.0168,-121.8969
California,Apple Valley,34.5334,-117.2104
California,Redlands,34.0535,-117.1705
California,Turlock,37.5046,-120.857
California,Dublin,37.7161,-121.8962
California,Baldwin Park,34.0828,-117.9713
California,Rocklin,38.8069,-121.2497
California,Redondo Beach,33.8568,-118.377
California,Camarillo,34.2218,-119.0322
California,Lake Elsinore,33.686,-117.3354
California,Union City,37.6032,-122.0181
California,Walnut Creek,37.9027,-122.0405
California,Yuba City,39.1386,-121.6397
California,Eastvale,33.9633,-117.5824
California,Tulare,36.1994,-119.3419
California,Palo Alto,37.3965,-122.1431
California,Yorba Linda,33.889,-117.7721
California,Lynwood,33.924,-118.2017
California,Davis,38.5561,-121.7378
California,Castro Valley,37.7083,-122.0628
California,Lodi,38.1216,-121.2908
California,Madera,36.963,-120.0778
California,South San Francisco,37.6551,-122.3762
California,Laguna Niguel,33.5287,-117.7013
California,San Clemente,33.4491,-117.6131
California,Brentwood,37.9356,-121.719
California,La Habra,33.9279,-117.9516
California,Santa Cruz,36.9744,-122.0353
California,Montebello,34.0154,-118.111
California,Porterville,36.0635,-119.0336
California,Pico Rivera,33.9895,-118.0893
California,Encinitas,33.0506,-117.2636
California,Florence-Graham,33.9682,-118.2447
California,San Rafael,37.981,-122.5069
California,La Mesa,32.7695,-117.0219
California,Monterey Park,34.0484,-118.1332
California,Woodland,38.6712,-121.75
California,Gardena,33.8944,-118.3075
California,Cupertino,37.3194,-122.045
California,Santee,32.855,-116.9861
California,Petaluma,38.2423,-122.6288
California,Gilroy,37.0064,-121.5853
California,Hanford,36.3274,-119.6549
California,Fountain Valley,33.7106,-117.9511
California,Highland,34.1135,-117.1657
California,Arcadia,34.1327,-118.0363
California,South Whittier,33.9331,-118.0308
California,National City,32.6652,-117.0988
California,Diamond Bar,34.0016,-117.8176
California,Huntington Park,33.9792,-118.2174
California,Yucaipa,34.0336,-117.0429
California,Hacienda Heights,33.9959,-117.973
California,West Sacramento,38.5544,-121.5487
California,Colton,34.0545,-117.325
California,San Jacinto,33.7989,-116.9959
California,Paramount,33.8989,-118.1666
California,Novato,38.0851,-122.5482
California,Beaumont,33.8767,-116.953
California,Watsonville,36.9196,-121.7702
California,Glendora,34.145,-117.8478
California,Florin,38.4832,-121.4043
California,Aliso Viejo,33.5792,-117.7289
California,Placentia,33.8812,-117.8548
California,Cathedral City,33.8355,-116.4631
California,Delano,35.7664,-119.2642
California,Covina,34.0905,-117.8821
California,Rosemead,34.0689,-118.0827
California,Palm Desert,33.7376,-116.3641
California,El Dorado Hills,38.6761,-121.0477
California,Cypress,33.8185,-118.0383
California,Azusa,34.1385,-117.9123
California,Lincoln,38.8745,-121.2929
California,Cerritos,33.8677,-118.0695
California,North Highlands,38.6713,-121.3721
California,Ceres,37.5988,-120.9681
California,Poway,32.9877,-117.0218
California,Antelope,38.7153,-121.361
California,Rowland Heights,33.9703,-117.8906
California,La Mirada,33.902,-118.009
California,Rancho Santa Margarita,33.6323,-117.599
California,Newark,37.5043,-122.0319
California,Brea,33.9252,-117.8651
California,San Luis Obispo,35.2635,-120.6624
California,Los Banos,37.0632,-120.8403
California,Morgan Hill,37.1325,-121.6419
California,Palm Springs,33.8034,-116.5383
California,Lompoc,34.6627,-120.4708
California,Rohnert Park,38.3476,-122.7009
California,El Centro,32.7864,-115.5602
California,Campbell,37.2802,-121.9533
California,Vineyard,38.474,-121.324
California,San Bruno,37.6256,-122.4314
California,Danville,37.8121,-121.9698
California,Oakley,37.9961,-121.6936
California,Altadena,34.1922,-118.1356
California,Rancho Palos Verdes,33.7385,-118.3697
California,Coachella,33.6905,-116.1431
California,Hollister,36.8556,-121.3986
California,Culver City,34.0058,-118.3968
California,San Gabriel,34.0946,-118.0985
California,Bell Gardens,33.9644,-118.1544
California,Pacifica,37.6066,-122.4772
California,Calexico,32.6849,-115.4944
California,La Puente,34.0323,-117.9535
California,Adelanto,34.5809,-117.4395
California,Stanton,33.8002,-117.9934
California,Monrovia,34.164,-117.9846
California,Montclair,34.0715,-117.6981
California,La Quinta,33.6461,-116.2753
California,Martinez,37.9981,-122.1144
California,Claremont,34.1249,-117.7139
California,Wildomar,33.6173,-117.2582
California,Temple City,34.1022,-118.058
California,Moorpark,34.2859,-118.877
California,Oildale,35.4293,-119.0306
California,Foothill Farms,38.6867,-121.3475
California,West Hollywood,34.0883,-118.3718
California,Orangevale,38.6894,-121.2231
California,Manhattan Beach,33.9009,-118.4207
California,French Valley,33.5995,-117.1065
California,San Juan Capistrano,33.5009,-117.6544
California,La Presa,32.7123,-117.0037
California,San Dimas,34.108,-117.8085
California,Pleasant Hill,37.9542,-122.0758
California,Westmont,33.9417,-118.3018
California,Foster City,37.5648,-122.2508
California,Menlo Park,37.4797,-122.1481
California,Bell,33.9797,-118.1792
California,Los Gatos,37.2299,-121.9568
California,Dana Point,33.4755,-117.6931
California,Beverly Hills,34.0792,-118.4024
California,Goleta,34.4354,-119.8589
California,Fair Oaks,38.6502,-121.251
California,Desert Hot Springs,33.9576,-116.5423
California,Seaside,36.6251,-121.8178
California,Fallbrook,33.3742,-117.2204
California,San Pablo,37.9629,-122.3426
California,Orcutt,34.8692,-120.4217
California,Atwater,37.354,-120.5972
California,Lawndale,33.8884,-118.3531
California,Los Altos,37.3684,-122.0966
California,El Paso de Robles (Paso Robles),35.6285,-120.6504
California,Burlingame,37.59,-122.3633
California,Laguna Hills,33.5912,-117.6976
California,La Verne,34.1205,-117.7699
California,Saratoga,37.2683,-122.0262
California,Spring Valley,32.7299,-116.9764
California,San Carlos,37.499,-122.2676
California,Santa Paula,34.355,-119.0663
California,Monterey,36.6012,-121.8831
California,East Palo Alto,37.4678,-122.1326
California,Atascadero,35.4857,-120.6879
California,San Lorenzo,37.6763,-122.1361
California,Suisun City,38.2483,-122.0101
California,Banning,33.946,-116.8992
California,Lathrop,37.8087,-121.3178
California,Eastern Goleta Valley,34.4439,-119.7855
California,Walnut,34.0372,-117.8556
California,East Niles,35.3683,-118.9225
California,Belmont,37.5144,-122.2945
California,Twentynine Palms,34.1478,-116.066
California,Ridgecrest,35.6285,-117.664
California,Lemon Grove,32.7331,-117.0344
California,Benicia,38.0727,-122.1552
California,Wasco,35.5938,-119.3671
California,Lemoore,36.2949,-119.7983
California,South Pasadena,34.109,-118.1566
California,Sanger,36.699,-119.5575
California,Eureka,40.7934,-124.1552
California,Brawley,32.9784,-115.5287
California,Windsor,38.5421,-122.8086
California,Norco,33.9255,-117.552
California,Temescal Valley,33.758,-117.4672
California,Ladera Ranch,33.5491,-117.6417
California,Imperial Beach,32.5691,-117.1149
California,Hercules,38.0214,-122.2889
California,El Cerrito,37.9196,-122.3025
California,North Tustin,33.7635,-117.7947
California,Barstow,34.867,-117.043
California,Lafayette,37.891,-122.1195
California,Galt,38.2704,-121.3006
California,West Whittier-Los Nietos,33.976,-118.0689
California,Seal Beach,33.7544,-118.0713
California,Reedley,36.5984,-119.4467
California,Maywood,33.9885,-118.1877
California,Soledad,36.4345,-121.3178
California,Riverbank,37.726,-120.9448
California,Loma Linda,34.0453,-117.2502
California,Selma,36.5715,-119.6143
California,Dinuba,36.5453,-119.3987
California,Mountain House,37.7673,-121.5449
California,West Rancho Dominguez,33.9043,-118.2678
California,Bloomington,34.0601,-117.4012
California,Willowbrook,33.9208,-118.2369
California,San Fernando,34.2887,-118.4362
California,Bay Point,38.0323,-121.9622
California,Ashland,37.6942,-122.1159
California,Patterson,37.4759,-121.1539
California,Rosemont,38.5477,-121.3554
California,Calabasas,34.1343,-118.6665
California,Millbrae,37.599,-122.402
California,Oakdale,37.7617,-120.8464
California,Laguna Beach,33.5434,-117.7618
California,West Puente Valley,34.0523,-117.9667
California,West Carson,33.8231,-118.2937
California,Cudahy,33.964,-118.1826
California,East San Gabriel,34.1162,-118.0799
California,Valinda,34.04,-117.9301
California,Winter Gardens,32.8375,-116.9266
California,Marina,36.6803,-121.7894
California,Corcoran,36.0841,-119.5613
California,Port Hueneme,34.1621,-119.2042
California,Rancho San Diego,32.7624,-116.9197
California,American Canyon,38.179,-122.2596
California,Yucca Valley,34.1233,-116.4216
California,Duarte,34.161,-117.9504
California,Linda,39.1241,-121.5422
California,Ramona,33.0458,-116.8775
California,South Lake Tahoe,38.9392,-119.9822
California,Granite Bay,38.7604,-121.1682
California,Lakeside,32.8566,-116.9042
California,Stanford,37.4269,-122.1677
California,Rosamond,34.8656,-118.2148
California,Lomita,33.7933,-118.3175
California,La Cañada Flintridge,34.2097,-118.2001
California,Lennox,33.9381,-118.3585
California,Agoura Hills,34.1489,-118.7639
California,Albany,37.8906,-122.3181
California,Imperial,32.839,-115.572
California,Coronado,32.6576,-117.1565
California,Stevenson Ranch,34.3877,-118.5844
California,Oroville,39.4954,-121.5601
California,La Crescenta-Montrose,34.233,-118.2358
California,Shafter,35.4794,-119.2013
California,South San Jose Hills,34.0123,-117.9044
California,Mead Valley,33.8333,-117.2852
California,Hermosa Beach,33.8698,-118.4053
California,Casa de Oro-Mount Helix,32.764,-116.9688
California,South El Monte,34.0504,-118.0484
California,Orinda,37.8816,-122.1686
California,Arvin,35.1944,-118.8306
California,East Hemet,33.7301,-116.941
California,Santa Fe Springs,33.9336,-118.0626
California,Chowchilla,37.1161,-120.242
California,Pinole,38.0017,-122.3185
California,Dixon,38.4475,-121.8242
California,Castaic,34.4775,-118.6264
California,Greenfield,36.3246,-121.2427
California,Prunedale,36.8117,-121.655
California,Cameron Park,38.674,-120.9883
California,Arcata,40.8623,-124.075
California,Rosedale,35.3886,-119.2057
California,Arroyo Grande,35.1241,-120.5845
California,Blythe,33.6536,-114.6218
California,Nipomo,35.0307,-120.4978
California,Laguna Woods,33.6121,-117.7303
California,Coalinga,36.1331,-120.339
California,El Segundo,33.9104,-118.4251
California,Live Oak,36.986,-121.9804
California,Rancho Mirage,33.7638,-116.4304
California,Bostonia,32.819,-116.9423
California,Moraga,37.8457,-122.1232
California,Truckee,39.3505,-120.1939
California,Susanville,40.4337,-120.6283
California,Clearlake,38.96,-122.6332
California,Ukiah,39.1466,-123.2103
California,Olivehurst,39.0795,-121.5567
California,Fillmore,34.399,-118.9175
California,Artesia,33.8676,-118.0806
California,McKinleyville,40.9516,-124.0774
California,Valle Vista,33.7434,-116.8888
California,Kerman,36.7249,-120.0624
California,Ripon,37.742,-121.1304
California,Parkway,38.4993,-121.452
California,Rio Linda,38.6875,-121.4417
California,Cherryland,37.6792,-122.1038
California,Vincent,34.0983,-117.9238
California,La Palma,33.8506,-118.0396
California,El Sobrante,37.9736,-122.3031
California,Isla Vista,34.4122,-119.8607
California,Woodcrest,33.8789,-117.3686
California,Discovery Bay,37.9081,-121.5972
California,Alamo,37.8548,-122.0136
California,Walnut Park,33.9682,-118.2219
California,East Rancho Dominguez,33.8948,-118.1956
California,Pacific Grove,36.6226,-121.9264
California,California City,35.1466,-117.8693
California,Coto de Caza,33.597,-117.5865
California,Red Bluff,40.1735,-122.2415
California,Alpine,32.8425,-116.7559
California,Parlier,36.6087,-119.5434
California,Lemon Hill,38.5172,-121.4573
California,Los Osos,35.3071,-120.8245
California,Mill Valley,37.9081,-122.5423
California,Livingston,37.3873,-120.7249
California,McFarland,35.6706,-119.2327
California,Hawaiian Gardens,33.8305,-118.0735
California,Lamont,35.2651,-118.916
California,El Sobrante,33.8725,-117.4625
California,North Fair Oaks,37.4754,-122.2035
California,Grass Valley,39.2238,-121.0522
California,Oak Park,34.185,-118.7669
California,Salida,37.7091,-121.0848
California,Phelan,34.4398,-117.5248
California,Auburn,38.8951,-121.0767
California,Avenal,36.0311,-120.1162
California,North Auburn,38.9307,-121.0811
California,Palos Verdes Estates,33.7743,-118.4258
California,King City,36.2163,-121.132
California,Avocado Heights,34.039,-117.9982
California,Carpinteria,34.3852,-119.5008
California,Lake Los Angeles,34.6098,-117.8303
California,Grand Terrace,34.0312,-117.3132
California,Larkspur,37.9405,-122.5302
California,Solana Beach,32.9913,-117.2581
California,Tehachapi,35.143,-118.446
California,Bonita,32.6732,-117.0061
California,Emeryville,37.8385,-122.3017
California,Marysville,39.1515,-121.5834
California,San Anselmo,37.9821,-122.5699
California,Big Bear City,34.2541,-116.7964
California,Grover Beach,35.1209,-120.6197
California,Lindsay,36.2082,-119.0897
California,Mendota,36.756,-120.3782
California,Fortuna,40.5871,-124.1422
California,San Marino,34.1227,-118.1129
California,Camp Pendleton South,33.2318,-117.392
California,Lake Arrowhead,34.2541,-117.1781
California,Kingsburg,36.5252,-119.5666
California,Commerce,33.9945,-118.15
California,Lakeland Village,33.649,-117.3668
California,Newman,37.3156,-121.0211
California,Sun Village,34.5595,-117.9568
California,Scotts Valley,37.0555,-122.0118
California,Alum Rock,37.3694,-121.8238
California,Signal Hill,33.8035,-118.1697
California,Half Moon Bay,37.4673,-122.4405
California,Los Alamitos,33.7969,-118.0612
California,Winton,37.3854,-120.6174
California,Crestline,34.2541,-117.2867
California,Tamalpais-Homestead Valley,37.8791,-122.5379
California,Quartz Hill,34.652,-118.2159
California,View Park-Windsor Hills,33.9945,-118.3478
California,Garden Acres,37.9637,-121.2296
California,Hillsborough,37.5572,-122.3586
California,Marina del Rey,33.9764,-118.4509
California,Diamond Springs,38.692,-120.8387
California,Fairview,37.6777,-122.0444
California,Healdsburg,38.6225,-122.8651
California,Anderson,40.4498,-122.2951
California,Piedmont,37.8225,-122.23
California,Sierra Madre,34.1688,-118.0502
California,La Riviera,38.5685,-121.355
California,Home Gardens,33.8784,-117.5115
California,Canyon Lake,33.6883,-117.2635
California,Clayton,37.9403,-121.9301
California,Country Club,37.968,-121.3405
California,Morro Bay,35.3673,-120.8692
California,Placerville,38.7311,-120.7977
California,Sonoma,38.2903,-122.4598
California,Muscoy,34.1552,-117.3477
California,Delhi,37.4306,-120.7759
California,Malibu,34.0259,-118.7596
California,Rossmoor,33.7887,-118.0803
California,Hillcrest,35.379,-118.9579
California,Farmersville,36.305,-119.2083
California,San Diego Country Estates,33.0094,-116.7873
California,East Whittier,33.9244,-117.9887
California,Rancho Mission Viejo,33.514,-117.5618
California,Shasta Lake,40.6766,-122.3809
California,Del Aire,33.9167,-118.3693
California,Exeter,36.2941,-119.146
California,Citrus,34.1134,-117.8913
California,Corte Madera,37.9318,-122.5077
California,Valley Center,33.233,-117.0158
California,Calimesa,33.9873,-117.0542
California,Rio Vista,38.1767,-121.7034
California,Soquel,36.9978,-121.9482
California,Capitola,36.9761,-121.954
California,East Bakersfield,35.3832,-118.9744
California,Charter Oak,34.1025,-117.8563
California,University of California-Santa Barbara,34.4183,-119.851
California,Camp Pendleton Mainside,33.3072,-117.331
California,Rodeo,38.0366,-122.254
California,Orange Cove,36.6211,-119.3187
California,Blackhawk,37.8096,-121.9132
California,Spring Valley Lake,34.4968,-117.2676
California,Golden Hills,35.1364,-118.4976
California,Mentone,34.0606,-117.115
California,Good Hope,33.7706,-117.2772
California,Oak Hills,34.3899,-117.4031
California,West Athens,33.9235,-118.3033
California,Potomac Park,35.3635,-118.965
California,Madera Acres,37.0123,-120.0799
California,Tiburon,37.8868,-122.4626
California,Rio del Mar,36.9579,-121.8848
California,Waterford,37.6427,-120.7542
California,Live Oak,39.2788,-121.6624
California,Cloverdale,38.7961,-123.0151
California,Midway City,33.7451,-117.9848
California,La Cresta,35.3972,-118.9893
California,Gonzales,36.506,-121.4429
California,Montecito,34.4186,-119.6331
California,August,37.9796,-121.2625
California,California Polytechnic State University,35.307,-120.6673
California,Alondra Park,33.8902,-118.3357
California,Topanga,34.0968,-118.606
California,Taft,35.1267,-119.4242
California,University of California-Davis,38.5377,-121.7579
California,Larkfield-Wikiup,38.513,-122.7536
California,Los Altos Hills,37.3669,-122.1388
California,Templeton,35.556,-120.7182
California,Orosi,36.5433,-119.2914
California,Orland,39.7461,-122.1855
California,Rolling Hills Estates,33.7787,-118.3275
California,Corning,39.9282,-122.182
California,Bermuda Dunes,33.7435,-116.2873
California,Mecca,33.5767,-116.0645
California,Plumas Lake,38.9791,-121.5581
California,Firebaugh,36.8537,-120.4537
California,Fort Irwin,35.2477,-116.6834
California,Pismo Beach,35.1532,-120.6739
California,Guadalupe,34.9649,-120.5731
California,Oroville East,39.4936,-121.4838
California,Westlake Village,34.1367,-118.8174
California,Thousand Palms,33.815,-116.3545
California,South San Gabriel,34.0478,-118.0957
California,Gold River,38.6269,-121.2492
California,Yreka,41.724,-122.6316
California,Magalia,39.8188,-121.6077
California,Earlimart,35.8914,-119.2721
California,Ojai,34.4492,-119.2467
California,Fairfax,37.9885,-122.5952
California,Cotati,38.3285,-122.71
California,Sebastopol,38.4,-122.8276
California,Highgrove,34.0106,-117.3098
California,Castroville,36.7648,-121.7534
California,Hughson,37.6021,-120.866
California,Escalon,37.7913,-120.9996
California,Acton,34.4961,-118.1839
California,Gridley,39.3622,-121.6971
California,Woodlake,36.4128,-119.0995
California,Interlaken,36.9506,-121.7375
California,Vandenberg Village,34.7117,-120.4619
California,Sausalito,37.8584,-122.4918
California,Piñon Hills,34.4456,-117.6236
California,Alta Sierra,39.1262,-121.0491
California,Thermalito,39.5089,-121.6011
California,Mammoth Lakes,37.6244,-118.9884
California,Atherton,37.4571,-122.2011
California,Oceano,35.1016,-120.6082
California,Garnet,33.9179,-116.4796
California,Winters,38.5333,-121.9755
California,Pollock Pines,38.7576,-120.591
California,El Rio,34.2453,-119.1569
California,San Martin,37.0829,-121.5963
California,Fort Bragg,39.4398,-123.8018
California,Franklin,37.3275,-120.5321
California,Heber,32.7325,-115.5294
California,Loomis,38.8094,-121.1955
California,Contra Costa Centre,37.926,-122.054
California,Kentfield,37.9359,-122.559
California,East Foothills,37.3826,-121.8137
California,Homeland,33.7459,-117.1132
California,Nuevo,33.8011,-117.1414
California,Fowler,36.6244,-119.6737
California,Desert Palms,33.7791,-116.2982
California,Crescent City,41.7645,-124.2008
California,Aptos,36.9911,-121.8935
California,Ladera Heights,33.9968,-118.37
California,Mira Monte,34.4311,-119.2872
California,Lemoore Station,36.2633,-119.9048
California,South Monrovia Island,34.1234,-117.9959
California,Calipatria,33.1688,-115.4857
California,Cherry Valley,33.9797,-116.9694
California,Joshua Tree,34.1236,-116.3129
California,Colusa,39.2058,-122.0124
California,Ben Lomond,37.0782,-122.0881
California,Silver Lakes,34.7479,-117.3446
California,Willows,39.5148,-122.1992
California,Cottonwood,40.3903,-122.3156
California,Lucas Valley-Marinwood,38.0405,-122.5765
California,Hidden Valley Lake,38.8015,-122.5514
California,Boyes Hot Springs,38.3126,-122.4887
California,Oak View,34.403,-119.2989
California,Huron,36.204,-120.0962
California,Jamul,32.7184,-116.8709
California,Solvang,34.5938,-120.1397
California,Gustine,37.2545,-120.9949
California,Fruitridge Pocket,38.5326,-121.4558
California,East Pasadena,34.1368,-118.0775
California,Las Flores,33.584,-117.6236
California,Lake Mathews,33.825,-117.3683
California,West Modesto,37.6175,-121.0328
California,Wilton,38.413,-121.2127
California,Oakhurst,37.3414,-119.6262
California,Rancho Murieta,38.5007,-121.074
California,Villa Park,33.818,-117.8113
California,Durham,39.6294,-121.7908
California,Saranap,37.8878,-122.0761
California,Pleasure Point,36.9597,-121.97
California,Dos Palos,36.9854,-120.6338
California,La Habra Heights,33.959,-117.949
California,Cambria,35.5521,-121.0841
California,Keyes,37.5573,-120.9114
California,Holtville,32.8138,-115.3783
California,Bear Valley Springs,35.1784,-118.6696
California,Rancho Calaveras,38.1273,-120.8531
California,Palermo,39.4307,-121.5229
California,East Porterville,36.0582,-118.9749
California,Williams,39.1498,-122.1389
California,Eucalyptus Hills,32.8852,-116.945
California,Bonadelle Ranchos,36.9688,-119.8928
California,Greenacres,35.3832,-119.1184
California,El Granada,37.521,-122.4708
California,Old Fig Garden,36.7988,-119.8051
California,Strawberry,37.8912,-122.5092
California,Elverta,38.7185,-121.4455
California,St. Helena,38.5128,-122.468
California,Boulder Creek,37.1341,-122.1272
California,Kensington,37.9051,-122.2842
California,Mayflower Village,34.1159,-118.0096
California,Tara Hills,37.9938,-122.3188
California,Benton Park,35.3464,-119.0298
California,Lucerne Valley,34.4427,-116.9021
California,Lake San Marcos,33.1224,-117.2086
California,Woodside,37.4221,-122.2586
California,Running Springs,34.2114,-117.1046
California,Calistoga,38.5814,-122.5827
California,Hilmar-Irwin,37.4045,-120.8504
California,Buellton,34.6155,-120.1942
California,Lake Wildwood,39.2332,-121.1977
California,Salton City,33.2994,-115.9609
California,Ione,38.3629,-120.9477
California,Bret Harte,37.6021,-121.0044
California,El Cerrito,33.8382,-117.5222
California,Big Bear Lake,34.2429,-116.8939
California,Lakeport,39.0383,-122.9226
California,Yosemite Lakes,37.1854,-119.7721
California,Jackson,38.3485,-120.7728
California,Sonora,37.9817,-120.3828
California,Willits,39.405,-123.3489
California,Goshen,36.3493,-119.4206
California,Camino Tassajara,37.7909,-121.8851
California,Happy Valley,40.4661,-122.418
California,Twin Lakes,36.9614,-121.9917
California,Burbank,37.3211,-121.9306
California,Needles,34.8134,-114.6266
California,Myrtletown,40.7887,-124.1307
California,Denair,37.5254,-120.7974
California,Brisbane,37.6757,-122.3833
California,Mayfair,36.7693,-119.7613
California,Paradise,39.7542,-121.6064
California,Indian Wells,33.7035,-116.3259
California,Wrightwood,34.346,-117.6276
California,Mojave,35.015,-118.1902
California,Mather,38.5484,-121.2838
California,Shingle Springs,38.6659,-120.9362
California,Sunnyside,36.7294,-119.6945
California,Guerneville,38.5172,-122.9899
California,Bonsall,33.2749,-117.1919
California,Carmel Valley Village,36.5006,-121.7318
California,Santa Ynez,34.6175,-120.0964
California,Felton,37.0392,-122.0808
California,Hidden Meadows,33.2236,-117.1198
California,McSwain,37.3145,-120.5868
California,Cutler,36.5247,-119.2888
California,Oasis,33.5275,-116.1261
California,Ivanhoe,36.3834,-119.2201
California,Portola Valley,37.3652,-122.2327
California,Broadmoor,37.6915,-122.4813
California,Emerald Lake Hills,37.4657,-122.2654
California,Lincoln Village,38.0055,-121.3338
California,Ford City,35.1647,-119.4584
California,Vine Hill,38.0071,-122.0873
California,Lake of the Pines,39.0387,-121.0613
California,Santa Venetia,38.0055,-122.5028
California,Armona,36.3166,-119.7054
California,Phoenix Lake,38.0113,-120.309
California,Fetters Hot Springs-Agua Caliente,38.3275,-122.4871
California,Del Monte Forest,36.5838,-121.9467
California,Empire,37.6431,-120.907
California,Pacheco,37.9879,-122.0698
California,Desert Edge,33.9223,-116.4401
California,North Richmond,37.9653,-122.3706
California,Planada,37.2902,-120.3216
California,Idyllwild-Pine Cove,33.7442,-116.7307
California,Coarsegold,37.2392,-119.701
California,Morada,38.0386,-121.2459
California,Harbison Canyon,32.8273,-116.8381
California,Woodbridge,38.1721,-121.3089
California,Tarpey Village,36.794,-119.7012
California,Cottonwood,35.3464,-118.9851
California,Bystrom,37.6194,-120.9813
