state,city,lat,lon,population
Alabama,Huntsville,34.7823,-86.5326,215006
Alabama,Birmingham,33.5272,-86.797,200733
Alabama,Montgomery,32.3485,-86.2673,200603
Alabama,Mobile,30.6684,-88.1002,187041
Alabama,Tuscaloosa,33.2344,-87.5283,99600
Alabama,Hoover,33.3769,-86.8056,92606
Alabama,Auburn,32.6077,-85.4895,76143
Alabama,Dothan,31.2337,-85.4068,71072
Alabama,Decatur,34.573,-86.9899,57938
Alabama,Madison,34.7105,-86.7623,56933
Alabama,Florence,34.8303,-87.6661,40184
Alabama,Vestavia Hills,33.4625,-86.7395,39102
Alabama,Phenix City,32.4617,-85.025,38816
Alabama,Prattville,32.449,-86.4494,37781
Alabama,Gadsden,34.0066,-86.0161,33945
Alabama,Alabaster,33.2444,-86.8474,33284
Alabama,Northport,33.2576,-87.5964,31125
Alabama,Opelika,32.6614,-85.3763,30995
Alabama,Enterprise,31.3269,-85.844,28711
Alabama,Daphne,30.6277,-87.884,27462
Alabama,Homewood,33.4585,-86.8097,26414
Alabama,Trussville,33.6552,-86.5632,26123
Alabama,Bessemer,33.3709,-86.9715,26019
Alabama,Athens,34.779,-86.9508,25406
Alabama,Pelham,33.3218,-86.7422,24318
Alabama,Fairhope,30.5209,-87.8791,22477
Alabama,Mountain Brook,33.4915,-86.7345,22461
Alabama,Albertville,34.2631,-86.2107,22386
Alabama,Oxford,33.5974,-85.8681,22069
Alabama,Anniston,33.6735,-85.8109,21564
Alabama,Helena,33.2834,-86.8792,20914
Alabama,Foley,30.397,-87.6642,20335
Alabama,Prichard,30.7733,-88.1314,19322
Alabama,Cullman,34.1769,-86.8407,18213
Alabama,Selma,32.417,-87.0357,17971
Alabama,Tillmans Corner,30.5815,-88.2128,17731
Alabama,Troy,31.802,-85.9671,17727
Alabama,Hueytown,33.4086,-87.0166,16776
Alabama,Millbrook,32.5015,-86.3739,16564
Alabama,Calera,33.1223,-86.7456,16494
Alabama,Center Point,33.6439,-86.6846,16406
Alabama,Muscle Shoals,34.7432,-87.6338,16275
Alabama,Saraland,30.854,-88.0972,16171
Alabama,Gardendale,33.6766,-86.8098,16044
Alabama,Talladega,33.4318,-86.0995,15861
Alabama,Scottsboro,34.6446,-86.0482,15578
Alabama,Hartselle,34.4404,-86.9404,15455
Alabama,Gulf Shores,30.2758,-87.7013,15014
Alabama,Chelsea,33.3269,-86.6295,14982
Alabama,Fort Payne,34.4573,-85.6894,14877
Alabama,Alexander City,32.9272,-85.9371,14843
Alabama,Jasper,33.856,-87.2703,14572
Alabama,Jacksonville,33.8101,-85.7552,14385
Alabama,Ozark,31.4516,-85.645,14368
Alabama,Irondale,33.5399,-86.6591,13497
Alabama,Moody,33.6034,-86.4938,13170
Alabama,McCalla,33.3031,-87.0267,12965
Alabama,Pell City,33.5603,-86.2636,12939
Alabama,Eufaula,31.9099,-85.1527,12882
Alabama,Sylacauga,33.1887,-86.2748,12578
Alabama,Leeds,33.5468,-86.5714,12324
Alabama,Russellville,34.5057,-87.7281,10855
Alabama,Valley,32.8014,-85.2044,10529
Alabama,Forestdale,33.5737,-86.9,10409
Alabama,Clay,33.6966,-86.6082,10291
Alabama,Rainbow City,33.9288,-86.0842,10191
Alabama,Boaz,34.199,-86.1552,10107
Alabama,Spanish Fort,30.723,-87.8659,10049
Alabama,Fairfield,33.4748,-86.9194,10000
Alabama,Saks,33.7114,-85.8537,9956
Alabama,Fultondale,33.6174,-86.8014,9876
Alabama,Meadowbrook,33.3952,-86.7044,9688
Alabama,Pleasant Grove,33.494,-86.9781,9544
Alabama,Pike Road,32.2736,-86.1189,9439
Alabama,Southside,33.8908,-86.018,9426
Alabama,Sheffield,34.757,-87.6982,9403
Alabama,Tuskegee,32.4187,-85.6825,9395
Alabama,Tuscumbia,34.7185,-87.7026,9054
Alabama,Andalusia,31.3094,-86.478,8805
Alabama,Clanton,32.8456,-86.6195,8768
Alabama,Guntersville,34.3679,-86.2523,8553
Alabama,Arab,34.3324,-86.5012,8461
Alabama,Atmore,31.1241,-87.4578,8391
Alabama,Meridianville,34.8749,-86.5806,8209
Alabama,Bay Minette,30.8944,-87.7913,8107
Alabama,Orange Beach,30.294,-87.5954,8095
Alabama,Brook Highland,33.4404,-86.6849,7406
Alabama,Greenville,31.8431,-86.637,7374
Alabama,Montevallo,33.1261,-86.8477,7229
Alabama,Wetumpka,32.5404,-86.207,7220
Alabama,Pinson,33.7033,-86.6697,7215
Alabama,Demopolis,32.4997,-87.8267,7162
Alabama,Hamilton,34.1387,-87.9708,7042
Alabama,Lanett,32.8578,-85.2078,6970
Alabama,Oneonta,33.947,-86.4898,6938
Alabama,Lincoln,33.5802,-86.1279,6845
Alabama,Opp,31.2844,-86.2574,6771
Alabama,Satsuma,30.8579,-88.0634,6749
Alabama,Moores Mill,34.8521,-86.5204,6729
Alabama,Robertsdale,30.5571,-87.7047,6708
Alabama,Chickasaw,30.7714,-88.0797,6457
Alabama,Theodore,30.5387,-88.1876,6270
Alabama,Tarrant,33.5929,-86.7663,6124
Alabama,Grayson Valley,33.6466,-86.6417,5982
Alabama,Monroeville,31.5162,-87.3277,5951
Alabama,Harvest,34.8551,-86.7586,5893
Alabama,Attalla,33.9862,-86.121,5827
Alabama,Rainsville,34.4944,-85.8365,5505
Alabama,Smiths Station,32.5072,-85.0811,5384
Alabama,Glencoe,33.9483,-85.9336,5372
Alabama,Roanoke,33.1453,-85.3695,5311
Alabama,Brewton,31.1092,-87.0766,5276
Alabama,Highland Lakes,33.3976,-86.6479,5239
Alabama,Midfield,33.4553,-86.9224,5211
Alabama,Redland,32.4814,-86.1438,5106
Alabama,Margaret,33.6728,-86.4639,5106
Alabama,Headland,31.355,-85.357,4973
Alabama,Odenville,33.7009,-86.4234,4969
Alabama,Semmes,30.8224,-88.2201,4941
Alabama,Holtville,32.6303,-86.328,4940
Alabama,Pine Level,32.5795,-86.4543,4885
Alabama,Daleville,31.2915,-85.7117,4866
Alabama,Winfield,33.9347,-87.7913,4845
Alabama,Piedmont,33.9276,-85.6153,4787
Alabama,Springville,33.7405,-86.4841,4786
Alabama,Tallassee,32.53,-85.8901,4763
Alabama,Childersburg,33.2925,-86.3408,4754
Alabama,Jackson,31.5323,-87.8912,4748
Alabama,Fort Rucker,31.3426,-85.7161,4464
Alabama,Columbiana,33.1915,-86.6156,4462
Alabama,Hokes Bluff,33.9897,-85.8629,4446
Alabama,Mount Olive,33.6693,-86.8755,4427
Alabama,Argo,33.691,-86.5053,4368
Alabama,Adamsville,33.6023,-86.9715,4366
Alabama,Haleyville,34.2338,-87.6176,4361
Alabama,Fayette,33.6942,-87.8312,4285
Alabama,Geneva,31.0449,-85.8768,4245
Alabama,Valley Grande,32.4869,-87.0328,4190
Alabama,Hazel Green,34.9237,-86.5674,4105
Alabama,Alexandria,33.7608,-85.872,4032
Alabama,Citronelle,31.0973,-88.2498,3946
Alabama,Kimberly,33.7803,-86.8006,3841
Alabama,Loxley,30.6846,-87.7392,3710
Alabama,Thomasville,31.9105,-87.743,3649
Alabama,Centre,34.1531,-85.6717,3587
Alabama,Lake View,33.2883,-87.1327,3560
Alabama,Evergreen,31.4332,-86.9761,3520
Alabama,Priceville,34.5296,-86.8822,3512
Alabama,Elba,31.4172,-86.0771,3508
Alabama,Grand Bay,30.4721,-88.3444,3460
Alabama,Livingston,32.5955,-88.1869,3436
Alabama,Heflin,33.6474,-85.5693,3431
Alabama,Holt,33.2297,-87.4829,3413
Alabama,Moulton,34.4883,-87.2827,3398
Alabama,Union Springs,32.1395,-85.7146,3358
Alabama,Weaver,33.7591,-85.8094,3339
Alabama,Emerald Mountain,32.4477,-86.0944,3310
Alabama,Red Bay,34.4361,-88.1365,3232
Alabama,Warrior,33.8149,-86.8156,3224
Alabama,Hanceville,34.064,-86.7644,3217
Alabama,Marion,32.632,-87.3173,3176
Alabama,Cottondale,33.193,-87.4549,3130
Alabama,West End-Cobb Town,33.6515,-85.8766,3128
Alabama,Dadeville,32.8261,-85.7762,3084
Alabama,Ladonia,32.4597,-85.0904,3074
Alabama,Underwood-Petersville,34.8761,-87.6982,3051
Alabama,Moundville,32.9965,-87.6275,3024
Alabama,Brent,32.9449,-87.1721,2972
Alabama,Eutaw,32.8462,-87.9003,2937
Alabama,Eagle Point,33.4009,-86.6768,2903
Alabama,Triana,34.5878,-86.7485,2890
Alabama,New Hope,34.538,-86.4124,2889
Alabama,Choccolocco,33.6677,-85.7072,2838
Alabama,Centreville,32.959,-87.132,2800
Alabama,Luverne,31.7189,-86.2691,2765
Alabama,La Fayette,32.8994,-85.4008,2684
Alabama,Hartford,31.1053,-85.6912,2651
Alabama,Jemison,32.9707,-86.7331,2642
Alabama,Remlap,33.807,-86.5939,2624
Alabama,Owens Cross Roads,34.5855,-86.455,2594
Alabama,Trinity,34.5974,-87.0814,2526
Alabama,Brookwood,33.2398,-87.3315,2504
Alabama,Lineville,33.3128,-85.7523,2489
Alabama,Good Hope,34.1103,-86.8662,2483
Alabama,Indian Springs Village,33.3612,-86.7469,2481
Alabama,Huguley,32.8431,-85.2396,2470
Alabama,Sumiton,33.7493,-87.0469,2444
Alabama,York,32.5006,-88.2914,2414
Alabama,Abbeville,31.5647,-85.2591,2358
Alabama,Ashville,33.8352,-86.27,2346
Alabama,Brighton,33.4396,-86.9454,2337
Alabama,Dora,33.7281,-87.0813,2297
Alabama,East Brewton,31.0914,-87.0553,2293
Alabama,Henagar,34.6306,-85.7309,2292
Alabama,Clayton,31.8823,-85.4605,2265
Alabama,Bridgeport,34.9493,-85.7238,2264
Alabama,Taylor,31.1688,-85.4758,2262
Alabama,Morris,33.7462,-86.8008,2259
Alabama,Ashford,31.1853,-85.2362,2246
Alabama,Midland City,31.3157,-85.4937,2239
Alabama,Riverside,33.6164,-86.2044,2227
Alabama,Greensboro,32.701,-87.5937,2218
Alabama,Stapleton,30.7356,-87.7977,2213
Alabama,Bayou La Batre,30.4076,-88.2633,2204
Alabama,Kinsey,31.2963,-85.335,2203
Alabama,Guin,33.9832,-87.9024,2195
Alabama,Aliceville,33.1237,-88.1593,2177
Alabama,Carlisle-Rockledge,34.1145,-86.1241,2167
Alabama,Selmont-West Selmont,32.3782,-87.0069,2158
Alabama,Whitesboro,34.169,-86.0585,2113
Alabama,Uniontown,32.4466,-87.4873,2107
Alabama,Vance,33.174,-87.2266,2092
Alabama,Lipscomb,33.426,-86.9261,2086
Alabama,Slocomb,31.1121,-85.5987,2082
Alabama,Point Clear,30.4861,-87.9111,2076
Alabama,Brundidge,31.7176,-85.8176,2073
Alabama,Thorsby,32.9169,-86.7203,2064
Alabama,Collinsville,34.2672,-85.8686,2059
Alabama,Coaling,33.1699,-87.3499,2035
Alabama,Ashland,33.2699,-85.8337,1984
Alabama,Vincent,33.3831,-86.4025,1982
Alabama,Elberta,30.3738,-87.5957,1974
Alabama,Stevenson,34.8768,-85.8144,1955
Alabama,Graysville,33.6338,-86.9414,1950
Alabama,Creola,30.8742,-88.0095,1936
Alabama,Linden,32.3014,-87.7926,1930
Alabama,Cowarts,31.2062,-85.3098,1930
Alabama,Camden,31.9985,-87.2889,1927
Alabama,Florala,31.0224,-86.3182,1923
Alabama,Vernon,33.7588,-88.1143,1921
Alabama,Sulligent,33.8912,-88.1266,1879
Alabama,Samson,31.1124,-86.0467,1874
Alabama,Butler,32.0965,-88.2108,1871
Alabama,Wilsonville,33.2408,-86.4911,1857
Alabama,Cedar Bluff,34.2214,-85.5886,1845
Alabama,Crossville,34.2827,-85.9997,1830
Alabama,Blountsville,34.0758,-86.5839,1826
Alabama,Level Plains,31.3071,-85.7687,1825
Alabama,Grove Hill,31.6987,-87.7729,1818
Alabama,Sardis City,34.1724,-86.1191,1814
Alabama,Rehobeth,31.1245,-85.4396,1791
Alabama,Sylvania,34.562,-85.8047,1790
Alabama,Dauphin Island,30.2509,-88.1713,1778
Alabama,Carbon Hill,33.895,-87.5221,1769
Alabama,Westover,33.3673,-86.534,1766
Alabama,Bon Secour,30.3182,-87.7244,1754
Alabama,Cordova,33.7618,-87.1994,1728
Alabama,Ragland,33.7483,-86.1359,1693
Alabama,Concord,33.462,-87.0404,1690
Alabama,Deatsville,32.589,-86.3891,1679
Alabama,Shoal Creek,33.4308,-86.6109,1668
Alabama,Stewartville,33.0755,-86.2607,1662
Alabama,Smoke Rise,33.8799,-86.8247,1661
Alabama,Sylvan Springs,33.5302,-87.0312,1653
Alabama,Gordo,33.3223,-87.9037,1628
Alabama,Harpersville,33.3177,-86.4284,1614
Alabama,Newton,31.3412,-85.5883,1607
Alabama,New Market,34.8923,-86.4258,1543
Alabama,Malvern,31.1437,-85.523,1536
Alabama,Reform,33.3782,-88.0173,1520
Alabama,Blue Ridge,32.4989,-86.1824,1485
Alabama,Lookout Mountain,34.1159,-85.9655,1484
Alabama,Woodstock,33.2175,-87.1484,1472
Alabama,Rock Creek,33.4772,-87.0812,1471
Alabama,Summerdale,30.4767,-87.6876,1468
Alabama,Flomaton,31.0148,-87.256,1466
Alabama,Ballplay,34.023,-85.8015,1437
Alabama,New Brockton,31.3767,-85.919,1428
Alabama,Marbury,32.673,-86.4637,1427
Alabama,Hackleburg,34.2694,-87.8304,1425
Alabama,Fayetteville,33.1681,-86.4428,1422
Alabama,Mount Vernon,31.0877,-88.0132,1354
Alabama,Munford,33.5262,-85.9562,1351
Alabama,Hayden,33.8945,-86.7442,1342
Alabama,Lillian,30.4189,-87.4208,1330
Alabama,Georgiana,31.6391,-86.7468,1324
Alabama,Ardmore,34.9878,-86.829,1321
Alabama,Coats Bend,34.0733,-85.8746,1318
Alabama,Goodwater,33.0607,-86.0525,1291
Alabama,Rogersville,34.8277,-87.2841,1286
Alabama,Elmore,32.5566,-86.341,1280
Alabama,Webb,31.2572,-85.2896,1270
Alabama,Brookside,33.6346,-86.9063,1253
Alabama,Cleveland,34.0022,-86.5614,1245
Alabama,Fort Deposit,31.9863,-86.5664,1225
Alabama,Clio,31.7085,-85.611,1220
Alabama,Coosada,32.4954,-86.3265,1217
Alabama,West Blocton,33.1182,-87.1252,1217
Alabama,Berry,33.6667,-87.6093,1216
Alabama,Falkville,34.377,-86.9095,1197
Alabama,Eclectic,32.6402,-86.0411,1193
Alabama,Locust Fork,33.8768,-86.6471,1192
Alabama,Mignon,33.1866,-86.2569,1186
Alabama,Frisco City,31.4395,-87.4042,1170
Alabama,Ohatchee,33.7898,-86.0291,1157
Alabama,Tidmore Bend,34.0332,-85.9264,1119
Alabama,Double Springs,34.1496,-87.3894,1119
Alabama,Chatom,31.4691,-88.246,1104
Alabama,Minor,33.539,-86.9401,1088
Alabama,Vandiver,33.4589,-86.5292,1084
Alabama,Town Creek,34.6713,-87.4078,1052
Alabama,Cottonwood,31.054,-85.2996,1048
Alabama,Bear Creek,34.2555,-87.7134,1047
Alabama,Grant,34.5182,-86.2604,1039
Alabama,Littleville,34.5951,-87.6707,1038
Alabama,Killen,34.861,-87.5293,1034
Alabama,Snead,34.1158,-86.3901,1032
Alabama,Carrollton,33.2619,-88.0951,1023
Alabama,New Union,34.1337,-86.228,1019
Alabama,Millport,33.5559,-88.0824,1010
Alabama,Camp Hill,32.7973,-85.6558,1006
Alabama,Steele,33.9414,-86.1921,992
Alabama,Phil Campbell,34.3515,-87.7074,992
Alabama,Parrish,33.7323,-87.2801,982
Alabama,Cherokee,34.7577,-87.9656,970
Alabama,Fyffe,34.449,-85.9052,967
Alabama,Altoona,34.04,-86.3052,948
Alabama,Ivalee,34.0372,-86.1472,946
Alabama,Shelby,33.1069,-86.5854,940
Alabama,Dunnavant,33.495,-86.5405,936
Alabama,Brantleyville,33.2193,-86.8825,931
Alabama,Hollywood,34.7173,-85.9656,914
Alabama,Notasulga,32.5554,-85.6686,914
Alabama,Leesburg,34.1786,-85.7779,911
Alabama,Geraldine,34.3591,-86.0026,910
Alabama,Coker,33.2438,-87.6813,904
Alabama,Powell,34.5326,-85.8976,901
Alabama,White Plains,33.7593,-85.6885,877
Alabama,Gallant,34.0013,-86.2302,869
Alabama,Holly Pond,34.1677,-86.6121,851
Alabama,Egypt,34.0759,-86.1651,845
Alabama,Brilliant,34.0257,-87.769,845
Alabama,Pea Ridge,33.1338,-86.9379,841
Alabama,Redstone Arsenal,34.6878,-86.6612,837
Alabama,Mosses,32.1888,-86.6794,834
Alabama,Skyline,34.7985,-86.1224,834
Alabama,Hayneville,32.1826,-86.5786,830
Alabama,Brantley,31.582,-86.2568,825
Alabama,Gurley,34.7025,-86.3743,816
Alabama,Magnolia Springs,30.4034,-87.7759,811
Alabama,White Hall,32.2974,-86.7158,806
Alabama,Somerville,34.4671,-86.7912,796
Alabama,Autaugaville,32.4326,-86.6588,795
Alabama,Reeltown,32.5742,-85.8196,794
Alabama,Susan Moore,34.092,-86.4342,787
Alabama,Mulga,33.5549,-86.9713,784
Alabama,New Site,33.026,-85.7845,773
Alabama,Walnut Grove,34.0646,-86.2872,773
Alabama,Oakman,33.7143,-87.3887,771
Alabama,Silverhill,30.5454,-87.7506,768
Alabama,Leroy,31.495,-87.9728,766
Alabama,Douglas,34.1683,-86.3234,761
Alabama,Hobson City,33.6188,-85.8461,759
Alabama,Pine Hill,31.9859,-87.5875,758
Alabama,Section,34.5816,-85.9849,756
Alabama,Jacksons' Gap,32.884,-85.815,747
Alabama,Edgewater,33.5301,-86.9528,746
Alabama,Woodville,34.6296,-86.2835,746
Alabama,McDonald Chapel,33.5186,-86.9385,739
Alabama,Gilbertown,31.8662,-88.3075,739
Alabama,Wedowee,33.308,-85.4865,737
Alabama,Ider,34.7026,-85.669,735
Alabama,Perdido,31.0057,-87.6301,730
Alabama,Lexington,34.9594,-87.3728,727
Alabama,Sterrett,33.4422,-86.461,706
Alabama,Columbia,31.2954,-85.1102,690
Alabama,Pisgah,34.6844,-85.846,681
Alabama,Leighton,34.6937,-87.5243,665
Alabama,Hollis Crossroads,33.5313,-85.6529,665
Alabama,Ariton,31.5978,-85.7131,662
Alabama,Addison,34.2027,-87.178,659
Alabama,Wadley,33.1234,-85.5686,659
Alabama,Baileyton,34.2609,-86.6088,649
Alabama,Maplesville,32.7883,-86.8767,637
Alabama,Babbie,31.3021,-86.3194,625
Alabama,Bristow Cove,34.1092,-86.241,624
Alabama,Reece City,34.0772,-86.0345,615
Alabama,Trafford,33.8187,-86.7465,613
Alabama,Belle Fontaine,30.4895,-88.1059,613
Alabama,Lynn,34.0576,-87.5486,610
Alabama,Our Town,32.8422,-85.967,605
Alabama,Rock Mills,33.1599,-85.2811,603
Alabama,Sand Rock,34.2312,-85.7704,591
Alabama,Franklin,32.4527,-85.7854,590
Alabama,Eva,34.3265,-86.7653,589
Alabama,Wilton,33.0816,-86.8797,587
Alabama,West Point,34.2388,-86.9639,584
Alabama,St. Florian,34.8741,-87.6237,584
Alabama,Courtland,34.6699,-87.3279,583
Alabama,Pinckard,31.319,-85.5378,582
Alabama,Kinston,31.2196,-86.1701,580
Alabama,Valley Head,34.5562,-85.623,577
Alabama,Grimes,31.2999,-85.4503,573
Alabama,Oak Grove,33.1904,-86.3037,564
Alabama,Axis,30.9222,-88.0226,561
Alabama,South Vinemont,34.2356,-86.864,558
Alabama,Stockton,31.0012,-87.8739,557
Alabama,Pickensville,33.2358,-88.2894,557
Alabama,Excel,31.4264,-87.3437,557
Alabama,Joppa,34.2996,-86.5499,556
Alabama,Perdido Beach,30.3539,-87.5048,555
Alabama,Dodge City,34.0433,-86.8855,548
Alabama,Allgood,33.9076,-86.5161,548
Alabama,Newville,31.4206,-85.3367,544
Alabama,Fairview,34.2502,-86.6777,543
Alabama,Garden City,34.0147,-86.7491,528
Alabama,Hollins,33.1218,-86.127,517
Alabama,McKenzie,31.5465,-86.726,507
Alabama,Castleberry,31.2997,-87.0291,486
Alabama,North Courtland,34.68,-87.3057,483
Alabama,River Falls,31.3524,-86.5446,479
Alabama,Berlin,34.1954,-86.7436,476
Alabama,Clayhatchee,31.2369,-85.7215,466
Alabama,Avon,31.1797,-85.2792,465
Alabama,Millry,31.6212,-88.328,450
Alabama,Lockhart,31.013,-86.3503,445
Alabama,Forkland,32.6474,-87.8674,445
Alabama,Hytop,34.8966,-86.0892,441
Alabama,Kennedy,33.581,-87.986,435
Alabama,Glen Allen,33.8921,-87.7327,433
Alabama,Red Level,31.4067,-86.6062,432
Alabama,Lisman,32.1717,-88.2841,427
Alabama,Pleasant Groves,34.7376,-86.1976,426
Alabama,Hammondville,34.5662,-85.6403,425
Alabama,Ranburne,33.5259,-85.339,422
Alabama,Midway,32.0764,-85.5244,421
Alabama,West Jefferson,33.6665,-87.047,417
Alabama,St. Stephens,31.5711,-88.0528,415
Alabama,Highland Lake,33.8946,-86.4226,412
Alabama,Elkmont,34.9326,-86.977,411
Alabama,Napier Field,31.3149,-85.455,409
Alabama,Hillsboro,34.6426,-87.1785,407
Alabama,Nances Creek,33.8555,-85.6691,399
Alabama,Louisville,31.781,-85.5583,395
Alabama,Shorter,32.4115,-85.9728,385
Alabama,Nectar,33.9798,-86.6206,379
Alabama,Silas,31.7678,-88.3259,377
Alabama,Rosa,33.9928,-86.5003,376
Alabama,Sipsey,33.8221,-87.0829,363
Alabama,Bellamy,32.4637,-88.1315,363
Alabama,Twin,33.9923,-87.8523,359
Alabama,Rutledge,31.7241,-86.302,351
Alabama,Rockford,32.8969,-86.2083,349
Alabama,Hackneyville,33.0547,-85.9344,349
Alabama,Hurtsboro,32.2401,-85.4147,349
Alabama,Dutton,34.6062,-85.9118,330
Alabama,Arley,34.0762,-87.2178,330
Alabama,Nixburg,32.8555,-86.1008,329
Alabama,Pennington,32.2006,-88.0376,329
Alabama,Thomaston,32.2683,-87.6237,326
Alabama,Ray,32.8681,-86.0453,326
Alabama,Vina,34.3762,-88.0606,325
Alabama,Shiloh,34.4627,-85.8776,321
Alabama,Mentone,34.5632,-85.5897,319
Alabama,Maytown,33.55,-87.0,316
Alabama,Mount Olive,33.0785,-86.133,311
Alabama,County Line,33.8207,-86.7195,311
Alabama,Cuba,32.4407,-88.3748,306
Alabama,Millerville,33.1915,-85.9298,303
Alabama,Boligee,32.7681,-88.0286,301
Alabama,Gordon,31.1436,-85.0925,294
Alabama,Movico,31.0628,-88.0266,291
Alabama,Carolina,31.2341,-86.521,286
Alabama,Dozier,31.5054,-86.3692,285
Alabama,Eunola,31.0314,-85.834,284
Alabama,Epes,32.695,-88.142,272
Alabama,Goshen,31.72,-86.1232,269
Alabama,Langston,34.5451,-86.0934,265
Alabama,Madrid,31.0356,-85.3992,265
Alabama,Hodges,34.3342,-87.9232,265
Alabama,Colony,33.9414,-86.902,264
Alabama,Coffeeville,31.7666,-88.086,263
Alabama,Uriah,31.3074,-87.4992,263
Alabama,Pine Ridge,34.4479,-85.7838,263
Alabama,Delta,33.4405,-85.6759,260
Alabama,Waldo,33.3871,-86.0411,258
Alabama,Sanford,31.2988,-86.3988,257
Alabama,Calvert,31.1499,-88.0215,255
Alabama,Anderson,34.9157,-87.2743,254
Alabama,Gordonville,32.1592,-86.7042,245
Alabama,Hatton,34.5607,-87.4138,244
Alabama,Macedonia,33.4031,-88.2392,241
Alabama,Heath,31.3448,-86.4691,236
Alabama,Fruithurst,33.7295,-85.4312,235
Alabama,Repton,31.4097,-87.2389,235
Alabama,Detroit,34.0274,-88.1678,230
Alabama,Sweet Water,32.1046,-87.8619,228
Alabama,Akron,32.8791,-87.7409,225
Alabama,Fulton,31.791,-87.7442,223
Alabama,Vredenburgh,31.8232,-87.3181,222
Alabama,Woodland,33.3756,-85.3974,221
Alabama,Black,31.0098,-85.7444,221
Alabama,Morrison Crossroads,33.418,-85.4883,221
Alabama,Spring Garden,33.973,-85.5558,216
Alabama,Spruce Pine,34.3929,-87.7296,215
Alabama,Bakerhill,31.7769,-85.2954,211
Alabama,Hissop,32.8906,-86.1296,209
Alabama,Yellow Bluff,31.9623,-87.4774,208
Alabama,Boykin,32.0684,-87.2943,208
Alabama,Weogufka,33.0217,-86.3091,207
Alabama,Horn Hill,31.2381,-86.3252,207
Alabama,Coffee Springs,31.1658,-85.9109,206
Alabama,Edwardsville,33.8837,-85.4141,206
Alabama,McIntosh,31.265,-88.0284,206
Alabama,Beatrice,31.7333,-87.209,204
Alabama,Fredonia,32.9836,-85.2923,198
Alabama,Graham,33.4552,-85.3231,196
Alabama,Gantt,31.4107,-86.4835,196
Alabama,Chunchula,30.9272,-88.2082,195
Alabama,Beaverton,33.9354,-88.0218,187
Alabama,Belk,33.6516,-87.9286,186
Alabama,Nauvoo,33.9844,-87.4854,185
Alabama,Paint Rock,34.6609,-86.334,182
Alabama,Kansas,33.9028,-87.5566,180
Alabama,Union,32.9938,-87.9072,180
Alabama,Waterloo,34.9172,-88.0644,178
Alabama,Vinegar Bend,31.2591,-88.3673,178
Alabama,Fruitdale,31.3498,-88.4109,175
Alabama,Daviston,33.0568,-85.6343,174
Alabama,East Point,34.1909,-86.7919,172
Alabama,Bon Air,33.2594,-86.3271,172
Alabama,Gainesville,32.8149,-88.1608,172
Alabama,Putnam,32.0181,-88.0331,172
Alabama,Belgreen,34.4745,-87.8617,170
Alabama,Gaylesville,34.2674,-85.5612,170
Alabama,Providence,32.3424,-87.7761,167
Alabama,Onycha,31.2257,-86.276,167
Alabama,Whatley,31.6463,-87.7108,167
Alabama,Penton,33.0098,-85.4748,163
Alabama,Riverview,31.0613,-87.0775,163
Alabama,Lakeview,34.3917,-85.9756,161
Alabama,Fairford,31.178,-88.0728,161
Alabama,Broomtown,34.3657,-85.5321,160
Alabama,Loachapoka,32.6079,-85.5985,160
Alabama,Waverly,32.7301,-85.571,159
Alabama,Banks,31.8133,-85.8364,156
Alabama,Geiger,32.8687,-88.3182,155
Alabama,Glenwood,31.6713,-86.1737,152
Alabama,Cusseta,32.7876,-85.3058,152
Alabama,Hanover,33.0029,-86.2009,151
Alabama,Orrville,32.3068,-87.2454,150
Alabama,Equality,32.7657,-86.1232,150
Alabama,Sims Chapel,31.2493,-88.143,145
Alabama,Toxey,31.9107,-88.3091,145
Alabama,Talladega Springs,33.1205,-86.4378,144
Alabama,Pine Apple,31.8722,-86.9891,143
Alabama,Gulfcrest,30.9911,-88.2422,142
Alabama,Gu-Win,33.9443,-87.8704,141
Alabama,Deer Park,31.2184,-88.328,141
Alabama,Malcolm,31.1987,-88.0011,136
Alabama,Eldridge,33.922,-87.6201,136
Alabama,Abanda,33.0916,-85.527,133
Alabama,Newbern,32.5917,-87.5356,133
Alabama,Standing Rock,33.0857,-85.2398,132
Alabama,Kellyton,32.9792,-86.0346,129
Alabama,Pollard,31.0239,-87.173,128
Alabama,North Johns,33.3678,-87.1007,127
Alabama,Cullomburg,31.7131,-88.2918,126
Alabama,Billingsley,32.6647,-86.7067,125
Alabama,Five Points,33.0173,-85.3516,114
Alabama,Haleburg,31.41,-85.1381,112
Alabama,Lester,34.9828,-87.1555,111
Alabama,Libertyville,31.2401,-86.457,108
Alabama,Hobson,31.4887,-88.1509,100
Alabama,Faunsdale,32.4576,-87.5938,90
Alabama,Lowndesboro,32.2764,-86.6108,89
Alabama,Peterman,31.5837,-87.263,87
Alabama,Blue Springs,31.6635,-85.5035,84
Alabama,Ridgeville,34.0569,-86.1029,83
Alabama,Fitzpatrick,32.2104,-85.8737,79
Alabama,Nanafalia,32.1114,-87.9958,75
Alabama,Needham,31.987,-88.3366,73
Alabama,Panola,32.9468,-88.2623,71
Alabama,Myrtlewood,32.2521,-87.9493,70
Alabama,Union Grove,34.4062,-86.4517,67
Alabama,Petrey,31.8522,-86.204,67
Alabama,Catherine,32.1862,-87.47,65
Alabama,Megargel,31.3781,-87.4306,60
Alabama,Tibbie,31.3705,-88.2439,55
Alabama,Cardiff,33.6473,-86.9306,52
Alabama,Goldville,33.0849,-85.778,52
Alabama,Ethelsville,33.4141,-88.2161,49
Alabama,Rockville,31.4058,-87.8442,47
Alabama,Mooresville,34.6259,-86.88,47
Alabama,Carlton,31.3486,-87.8357,46
Alabama,Benton,32.3079,-86.8175,41
Alabama,Natural Bridge,34.0904,-87.6014,32
Alabama,McMullen,33.1481,-88.1757,32
Alabama,Emelle,32.7287,-88.3165,32
Alabama,Memphis,33.137,-88.3059,29
Alabama,Dayton,32.351,-87.6416,28
Alabama,Bucks,31.0169,-88.0264,22
Alabama,Oak Hill,31.9216,-87.0852,14
Alaska,Anchorage,61.1743,-149.2843,291247
Alaska,Fairbanks,64.8365,-147.6517,32515
Alaska,Juneau,58.3729,-134.1784,32255
Alaska,Knik-Fairview,61.5076,-149.6226,19297
Alaska,Badger,64.8001,-147.3851,19031
Alaska,College,64.8673,-147.8195,11332
Alaska,North Lakes,61.6184,-149.3107,9450
Alaska,Meadow Lakes,61.638,-149.6096,9197
Alaska,Wasilla,61.5811,-149.4608,9054
Alaska,Tanaina,61.6572,-149.4277,8817
Alaska,Kalifornsky,60.4534,-151.2203,8487
Alaska,Sitka,57.1932,-135.3674,8458
Alaska,Ketchikan,55.3571,-131.6746,8192
Alaska,Kenai,60.5622,-151.2081,7424
Alaska,Steele Creek,64.9256,-147.4351,6437
Alaska,Bethel,60.7939,-161.7963,6325
Alaska,Chena Ridge,64.7943,-148.0329,6015
Alaska,Sterling,60.5401,-150.8053,5918
Alaska,Palmer,61.5972,-149.1147,5888
Alaska,Gateway,61.5669,-149.2227,5748
Alaska,Kodiak,57.7912,-152.4197,5581
Alaska,Homer,59.6475,-151.5131,5522
Alaska,South Lakes,61.5876,-149.3155,5229
Alaska,Fishhook,61.7312,-149.2836,5048
Alaska,Utqiaġvik,71.2539,-156.7982,4927
Alaska,Farmers Loop,64.9082,-147.6986,4704
Alaska,Nikiski,60.725,-151.2253,4456
Alaska,Soldotna,60.4853,-151.069,4342
Alaska,Unalaska,53.9103,-166.529,4254
Alaska,Mill Bay,57.8155,-152.3675,4216
Alaska,Valdez,61.0836,-146.3172,3985
Alaska,Big Lake,61.5155,-149.9755,3833
Alaska,Nome,64.5057,-165.4153,3699
Alaska,Butte,61.534,-148.9882,3589
Alaska,Goldstream,64.9422,-148.0273,3299
Alaska,Kotzebue,66.8771,-162.5035,3102
Alaska,Petersburg,56.7569,-132.8749,3043
Alaska,Farm Loop,61.6351,-149.1552,2747
Alaska,Seward,60.1248,-149.3916,2717
Alaska,Eielson AFB,64.6733,-147.0595,2610
Alaska,Cordova,60.5301,-145.6421,2609
Alaska,Ester,64.8791,-148.0412,2416
Alaska,Deltana,63.7893,-145.3516,2359
Alaska,Dillingham,59.0605,-158.5323,2249
Alaska,Fritz Creek,59.7469,-151.2886,2248
Alaska,North Pole,64.7527,-147.3627,2243
Alaska,Willow,61.887,-149.6202,2196
Alaska,Ridgeway,60.5308,-151.0521,2136
Alaska,Bear Creek,60.2081,-149.3698,2129
Alaska,Wrangell,56.1808,-132.0268,2127
Alaska,Anchor Point,59.7474,-151.6957,2105
Alaska,Houston,61.6153,-149.8006,1975
Alaska,Point MacKenzie,61.3427,-150.0485,1852
Alaska,Kodiak Station,57.768,-152.5959,1673
Alaska,Haines,59.2497,-135.4688,1657
Alaska,Akutan,54.14,-165.763,1589
Alaska,Susitna North,62.1535,-149.7284,1564
Alaska,Lazy Mountain,61.6582,-148.9256,1506
Alaska,Cohoe,60.267,-151.2982,1471
Alaska,Metlakatla,55.1147,-131.5557,1454
Alaska,Hooper Bay,61.5092,-166.1115,1375
Alaska,Diamond Ridge,59.7024,-151.5546,1330
Alaska,Prudhoe Bay,70.3659,-148.7494,1310
Alaska,Tok,63.3289,-143.0379,1243
Alaska,Skagway,59.4644,-135.2757,1164
Alaska,Funny River,60.4843,-150.7887,1103
Alaska,Salamatof,60.6042,-151.3113,1078
Alaska,Talkeetna,62.3095,-149.9239,1055
Alaska,Sutton-Alpine,61.7414,-148.8742,1038
Alaska,Craig,55.4887,-133.1116,1036
Alaska,Buffalo Soapstone,61.6844,-149.1212,1021
Alaska,Salcha,64.5341,-146.8836,977
Alaska,Healy,63.9596,-148.9708,966
Alaska,Chevak,61.5296,-165.5941,951
Alaska,Hoonah,58.122,-135.4315,931
Alaska,Delta Junction,64.0573,-145.7,918
Alaska,Ninilchik,60.0613,-151.4044,845
Alaska,Savoonga,63.6797,-170.4833,835
Alaska,Point Hope,68.3442,-166.6812,830
Alaska,Emmonak,62.7756,-164.5093,825
Alaska,Togiak,59.0499,-160.3976,817
Alaska,Kwethluk,60.7932,-161.4308,812
Alaska,Selawik,66.5981,-160.0008,809
Alaska,Knik River,61.4619,-149.0075,792
Alaska,Quinhagak,59.7513,-161.8972,776
Alaska,Unalakleet,63.8942,-160.7968,765
Alaska,King Cove,55.085,-162.3168,757
Alaska,Alakanuk,62.711,-164.6497,756
Alaska,Womens Bay,57.687,-152.6847,743
Alaska,Klawock,55.5564,-133.0861,720
Alaska,Happy Valley,59.8985,-151.5289,713
Alaska,Kipnuk,59.9375,-164.0622,704
Alaska,Noorvik,66.8282,-161.0347,694
Alaska,Akiachak,60.921,-161.4021,677
Alaska,Toksook Bay,60.5274,-165.1069,658
Alaska,Yakutat,59.5636,-139.6062,657
Alaska,Gustavus,58.4347,-135.7282,655
Alaska,Kotlik,63.0292,-163.5367,655
Alaska,Two Rivers,64.8908,-147.0899,650
Alaska,Fox River,59.8899,-151.0121,644
Alaska,Gambell,63.7759,-171.7148,640
Alaska,Stebbins,63.4734,-162.26,634
Alaska,Wainwright,70.6582,-159.9852,628
Alaska,Kasigluk,60.8638,-162.5366,623
Alaska,Mountain Village,62.092,-163.695,621
Alaska,Pilot Station,61.9482,-162.8726,615
Alaska,Pleasant Valley,64.8855,-146.8986,606
Alaska,Scammon Bay,61.8419,-165.5833,600
Alaska,St. Mary's,62.0628,-163.2443,599
Alaska,Nunapitchuk,60.8817,-162.4646,594
Alaska,Sand Point,55.3135,-160.4843,578
Alaska,Kachemak,59.6745,-151.4363,576
Alaska,Shishmaref,66.233,-166.1253,576
Alaska,Noatak,67.5895,-163.0104,570
Alaska,Buckland,65.9765,-161.1394,550
Alaska,Kake,56.9753,-133.9037,543
Alaska,Moose Creek,64.7164,-147.1666,534
Alaska,Kasilof,60.3193,-151.2329,525
Alaska,Nuiqsut,70.2135,-150.9897,512
Alaska,New Stuyahok,59.4853,-157.3091,512
Alaska,Napaskiak,60.7028,-161.7538,509
Alaska,Aniak,61.5788,-159.5474,507
Alaska,Chefornak,60.1518,-164.2515,506
Alaska,South Van Horn,64.8097,-147.7878,503
Alaska,Trapper Creek,62.4154,-150.4078,499
Alaska,Marshall,61.8716,-162.0609,492
Alaska,Manokotak,58.7395,-158.9145,488
Alaska,Kongiganak,59.9916,-162.847,486
Alaska,Thorne Bay,55.667,-132.5357,476
Alaska,Galena,64.7414,-156.8734,472
Alaska,Naknek,58.7852,-156.8859,470
Alaska,Tuntutuliak,60.4103,-162.6697,469
Alaska,Akiak,60.9094,-161.216,462
Alaska,St. Michael,63.4585,-162.1345,456
Alaska,Kiana,66.9726,-160.4344,447
Alaska,Tuluksak,61.1044,-160.9372,444
Alaska,Kivalina,67.7269,-164.5355,444
Alaska,Big Delta,64.157,-145.7409,444
Alaska,Glennallen,62.1539,-145.8441,439
Alaska,Brevig Mission,65.3432,-166.5089,428
Alaska,Fort Yukon,66.5884,-145.2276,428
Alaska,Anaktuvuk Pass,68.1498,-151.6971,425
Alaska,Russian Mission,61.7787,-161.3629,421
Alaska,St. Paul,57.1791,-170.3228,413
Alaska,Tununak,60.6071,-165.128,411
Alaska,Fox,64.9749,-147.609,406
Alaska,Eek,60.2163,-162.042,404
Alaska,False Pass,54.8724,-163.3343,397
Alaska,Atmautluak,60.8628,-162.2803,386
Alaska,Saxman,55.3232,-131.5891,384
Alaska,Hydaburg,55.2058,-132.8204,380
Alaska,Kwigillingok,59.8776,-163.1773,380
Alaska,Glacier View,61.848,-147.7726,375
Alaska,Elim,64.6182,-162.2766,366
Alaska,Napakiak,60.6905,-161.9856,358
Alaska,Nenana,64.5361,-149.0836,358
Alaska,Angoon,57.4413,-134.4784,357
Alaska,Cooper Landing,60.4946,-149.8439,344
Alaska,Copper Center,62.0011,-145.364,338
Alaska,Point Lay,69.7371,-162.8341,330
Alaska,Nikolaevsk,59.8296,-151.5964,328
Alaska,Koyuk,64.9411,-161.1455,312
Alaska,Fort Greely,63.9678,-145.7149,309
Alaska,King Salmon,58.7352,-156.5285,307
Alaska,Nightmute,60.4624,-164.8346,306
Alaska,Huslia,65.7055,-156.311,304
Alaska,McGrath,62.9389,-155.5684,301
Alaska,Kaktovik,70.1215,-143.6294,283
Alaska,Lower Kalskag,61.5171,-160.3546,278
Alaska,Atqasuk,70.4808,-157.3255,276
Alaska,Ambler,67.0909,-157.8871,274
Alaska,Shungnak,66.8805,-157.15,272
Alaska,Whittier,60.7773,-148.6637,272
Alaska,Goodnews Bay,59.1272,-161.5753,258
Alaska,Chickaloon,61.8153,-148.292,254
Alaska,Harding-Birch Lakes,64.3813,-146.5306,253
Alaska,Teller,65.2524,-166.3521,249
Alaska,Nanwalek,59.3338,-151.9296,247
Alaska,Tanana,65.184,-152.0551,246
Alaska,Tazlina,62.0503,-145.443,244
Alaska,Nulato,64.6913,-158.2754,239
Alaska,Seldovia,59.4395,-151.7104,235
Alaska,Northway,63.0008,-141.5413,234
Alaska,Kenny Lake,61.6216,-144.8213,234
Alaska,Eareckson Station,52.7211,174.1071,232
Alaska,Moose Pass,60.5059,-149.4684,228
Alaska,Nunam Iqua,62.5069,-164.9006,217
Alaska,Old Harbor,57.2188,-153.3297,216
Alaska,Upper Kalskag,61.5403,-160.349,212
Alaska,Shaktoolik,64.3545,-161.1935,212
Alaska,Aleknagik,59.289,-158.6643,211
Alaska,Grayling,62.8961,-160.113,210
Alaska,Newtok,60.9351,-164.6457,209
Alaska,Clam Gulch,60.2089,-151.4042,207
Alaska,Mekoryuk,60.3702,-166.2682,206
Alaska,Venetie,67.0207,-146.3743,205
Alaska,Cantwell,63.4114,-148.7496,200
Alaska,Seldovia Village,59.4613,-151.5888,199
Alaska,Kobuk,66.9234,-156.9041,191
Alaska,Willow Creek,61.8302,-145.1986,190
Alaska,Port Alsworth,60.1567,-154.3396,186
Alaska,White Mountain,64.6824,-163.4128,185
Alaska,Koliganek,59.6967,-157.2248,183
Alaska,Deering,66.0695,-162.7646,182
Alaska,Allakaket,66.542,-152.583,177
Alaska,Anderson,64.3083,-149.1632,177
Alaska,Holy Cross,62.1851,-159.8588,176
Alaska,Golovin,64.5639,-162.9989,175
Alaska,Adak,51.9099,-176.5981,171
Alaska,Port Lions,57.867,-152.8562,170
Alaska,Manley Hot Springs,65.0188,-150.6453,169
Alaska,Gakona,62.368,-145.3052,169
Alaska,Wales,65.6132,-168.0683,168
Alaska,Newhalen,59.7371,-154.9024,168
Alaska,Denali Park,63.573,-148.6737,163
Alaska,Port Graham,59.3398,-151.8465,162
Alaska,Hope,60.8861,-149.633,161
Alaska,Mud Bay,59.1512,-135.3565,159
Alaska,Kaltag,64.3141,-158.7788,158
Alaska,Kokhanok,59.4121,-154.746,152
Alaska,Tyonek,61.0994,-151.3389,152
Alaska,Arctic Village,68.1654,-145.4014,151
Alaska,Minto,65.0896,-149.5902,150
Alaska,Tanacross,63.3287,-143.4866,144
Alaska,Naukati Bay,55.8741,-133.195,142
Alaska,Ruby,64.7233,-155.5005,139
Alaska,Nondalton,59.9752,-154.866,133
Alaska,Mentasta Lake,63.0117,-143.5615,127
Alaska,Coffman Cove,56.0017,-132.842,127
Alaska,Tetlin,63.1819,-142.5044,126
Alaska,Mosquito Lake,59.4751,-136.1991,120
Alaska,Pitkas Point,62.0374,-163.2681,120
Alaska,Crown Point,60.4267,-149.353,119
Alaska,Tenakee Springs,57.7901,-135.1354,116
Alaska,Slana,62.6179,-143.5224,116
Alaska,Silver Springs,62.0193,-145.3583,111
Alaska,Ekwok,59.3458,-157.487,111
Alaska,Gulkana,62.2154,-145.445,110
Alaska,Ouzinkie,57.9247,-152.4624,109
Alaska,Iliamna,59.7783,-154.8838,108
Alaska,McCarthy,61.454,-142.8647,107
Alaska,Chuathbaluk,61.5739,-159.247,104
Alaska,Twin Hills,59.0818,-160.2806,103
Alaska,Chitina,61.553,-144.1753,101
Alaska,Port Heiden,56.9652,-158.5864,100
Alaska,Shageluk,62.6616,-159.5514,100
Alaska,Mertarvik,60.811,-164.4991,99
Alaska,Koyukuk,64.9021,-157.6935,98
Alaska,Pelican,57.9592,-136.2151,98
Alaska,Chignik,56.2952,-158.3918,97
Alaska,Primrose,60.3416,-149.2964,96
Alaska,Sleetmute,61.6539,-157.103,95
Alaska,Circle,65.8386,-144.1753,91
Alaska,Tatitlek,60.8944,-146.6686,90
Alaska,Crooked Creek,61.7967,-158.081,90
Alaska,Nikolai,62.9991,-154.3749,89
Alaska,Perryville,55.9345,-159.1558,88
Alaska,Klukwan,59.3983,-135.8882,87
Alaska,Whale Pass,56.0821,-133.0675,86
Alaska,Hughes,66.0452,-154.2376,85
Alaska,Diomede,65.7539,-168.9226,83
Alaska,Eagle,64.7813,-141.1978,83
Alaska,Lowell Point,60.0761,-149.4938,79
Alaska,Port Alexander,56.2376,-134.6527,78
Alaska,Chignik Lagoon,56.3043,-158.5003,72
Alaska,Whitestone,64.1528,-145.9064,71
Alaska,Oscarville,60.7234,-161.7882,70
Alaska,Pilot Point,57.5411,-157.7228,70
Alaska,Anvik,62.6316,-160.2151,70
Alaska,Levelock,59.0682,-156.901,69
Alaska,Igiugig,59.301,-155.8633,68
Alaska,Clark's Point,58.833,-158.5273,67
Alaska,South Naknek,58.6755,-156.9941,67
Alaska,St. George,56.571,-169.6599,67
Alaska,Central,65.5091,-144.6205,66
Alaska,Hollis,55.5155,-132.7019,65
Alaska,Akhiok,56.9483,-154.2153,63
Alaska,Skwentna,61.8887,-151.2,62
Alaska,Dry Creek,63.6266,-144.6392,61
Alaska,Chignik Lake,56.2732,-158.7934,61
Alaska,Chiniak,57.5755,-152.279,61
Alaska,Halibut Cove,59.5696,-151.2238,60
Alaska,Chistochina,62.5964,-144.941,60
Alaska,Chenega,60.0921,-147.9946,59
Alaska,Stony River,61.792,-156.5905,57
Alaska,Rampart,65.4049,-149.921,57
Alaska,Takotna,62.9827,-156.0838,56
Alaska,Chalkyitsik,66.6468,-143.7893,56
Alaska,Platinum,58.9526,-161.747,55
Alaska,Tonsina,61.5303,-145.1101,55
Alaska,Atka,52.2115,-174.2135,53
Alaska,Eagle Village,64.7434,-141.1138,53
Alaska,Cold Bay,55.2158,-162.7757,50
Alaska,Beaver,66.3847,-147.2878,48
Alaska,Hyder,55.9815,-130.0383,48
Alaska,Nelchina,62.0104,-146.8299,45
Alaska,Pedro Bay,59.7896,-154.1413,43
Alaska,Nelson Lagoon,55.8366,-161.6358,41
Alaska,Excursion Inlet,58.4151,-135.3455,40
Alaska,Nikolski,53.0079,-168.7185,39
Alaska,Egegik,58.2051,-157.522,39
Alaska,Stevens Village,66.0237,-149.0803,37
Alaska,Mendeltna,62.1461,-146.758,36
Alaska,Alcan Border,62.7031,-141.1936,36
Alaska,Port Protection,56.3319,-133.6064,36
Alaska,Birch Creek,66.2683,-145.8766,35
Alaska,Beluga,61.1909,-151.1842,34
Alaska,Coldfoot,67.2475,-150.1081,34
Alaska,Larsen Bay,57.5299,-154.0012,34
Alaska,Lake Minchumina,63.7903,-152.4618,30
Alaska,Kasaan,55.5611,-132.4068,30
Alaska,Lutak,59.4122,-135.589,29
Alaska,Karluk,57.591,-154.3634,27
Alaska,Petersville,62.4535,-150.8841,27
Alaska,Paxson,62.9757,-145.7576,26
Alaska,Covenant Life,59.3975,-136.123,25
Alaska,Edna Bay,55.9676,-133.6923,25
Alaska,Healy Lake,64.0097,-144.6816,24
Alaska,Elfin Cove,58.0877,-136.2883,24
Alaska,Eureka Roadhouse,61.9585,-147.1551,24
Alaska,Game Creek,58.0501,-135.5125,23
Alaska,Bettles,66.9069,-151.538,23
Alaska,Dot Lake Village,63.6626,-144.0162,23
Alaska,Red Devil,61.7575,-157.3585,22
Alaska,Kupreanof,56.8213,-132.9722,21
Alaska,Dot Lake,63.5872,-144.2924,21
Alaska,Chase,62.4182,-149.9362,19
Alaska,Four Mile Road,64.6045,-149.1152,18
Alaska,Ferry,64.0496,-148.9206,17
Alaska,Livengood,65.4765,-148.4228,16
Alaska,Lake Louise,62.3016,-146.5402,15
Alaska,Sunrise,60.8701,-149.4678,15
Alaska,Alatna,66.5638,-152.8385,15
Alaska,Lime Village,61.33,-155.2336,13
Alaska,Tolsona,62.0678,-146.1203,12
Alaska,Evansville,66.9329,-151.3701,12
Alaska,Point Baker,56.3481,-133.6168,12
Alaska,Chicken,64.0877,-141.8283,12
Alaska,Susitna,61.5466,-150.5881,11
Alaska,Point Possession,60.9231,-150.6888,9
Alaska,Pope-Vannoy Landing,59.5706,-154.4472,6
Alaska,Red Dog Mine,68.0644,-162.8669,5
Alaska,Aleneva,58.0591,-152.909,5
Alaska,Wiseman,67.4809,-150.1541,5
Alaska,Portage Creek,58.9054,-157.6698,4
Alaska,Ugashik,57.6474,-156.9949,4
Alaska,Whitestone Logging Camp,58.0583,-135.4093,2
Alaska,Nabesna,62.4965,-143.0074,2
Alaska,Ivanof Bay,55.9182,-159.4933,1
Alaska,Hobart Bay,57.4178,-133.3066,1
Arizona,Phoenix,33.5722,-112.0901,1608139
Arizona,Tucson,32.153,-110.8708,542629
Arizona,Mesa,33.4006,-111.7165,504258
Arizona,Chandler,33.2828,-111.8518,275987
Arizona,Gilbert,33.3102,-111.7432,267918
Arizona,Glendale,33.5331,-112.1899,248325
Arizona,Scottsdale,33.6843,-111.8614,241361
Arizona,Peoria,33.7862,-112.308,190985
Arizona,Tempe,33.3884,-111.9318,180587
Arizona,Surprise,33.6708,-112.4525,143148
Arizona,San Tan Valley,33.1786,-111.5628,99894
Arizona,Yuma,32.5163,-114.5218,95548
Arizona,Goodyear,33.254,-112.3665,95294
Arizona,Buckeye,33.4316,-112.6416,91502
Arizona,Avondale,33.3132,-112.3289,89334
Arizona,Flagstaff,35.1852,-111.6207,76831
Arizona,Casas Adobes,32.3418,-111.0116,70973
Arizona,Queen Creek,33.2402,-111.6088,59519
Arizona,Maricopa,33.0419,-111.9993,58125
Arizona,Lake Havasu City,34.4998,-114.3109,57144
Arizona,Casa Grande,32.9069,-111.7623,53658
Arizona,Catalina Foothills,32.3019,-110.8848,52401
Arizona,Marana,32.4659,-111.1354,51908
Arizona,Oro Valley,32.4207,-110.977,47070
Arizona,Prescott Valley,34.5979,-112.3185,46785
Arizona,Prescott,34.5858,-112.4462,45827
Arizona,Sierra Vista,31.5654,-110.3145,45308
Arizona,Bullhead City,35.1274,-114.556,41348
Arizona,Sun City,33.6155,-112.2831,39931
Arizona,Apache Junction,33.3983,-111.5353,38499
Arizona,El Mirage,33.5902,-112.3271,35805
Arizona,San Luis,32.4862,-114.7234,35257
Arizona,Sahuarita,31.9322,-110.9654,34134
Arizona,Kingman,35.217,-114.0105,32689
Arizona,Fortuna Foothills,32.6616,-114.3974,27776
Arizona,Drexel Heights,32.1453,-111.048,27523
Arizona,Florence,33.0694,-111.414,26785
Arizona,Sun City West,33.6714,-112.3572,25806
Arizona,Fountain Hills,33.6078,-111.7384,23820
Arizona,Anthem,33.8468,-112.127,23190
Arizona,Green Valley,31.8408,-111.0045,22616
Arizona,Rio Rico,31.4982,-110.9878,20549
Arizona,Nogales,31.3619,-110.9348,19770
Arizona,New River,33.8826,-112.0861,17290
Arizona,Douglas,31.3993,-109.5413,16534
Arizona,Payson,34.2438,-111.319,16351
Arizona,Tanque Verde,32.2688,-110.7437,16250
Arizona,Fort Mohave,35.0004,-114.5749,16190
Arizona,Flowing Wells,32.2938,-111.0111,15657
Arizona,Eloy,32.7413,-111.594,15635
Arizona,Sun Lakes,33.215,-111.87,14868
Arizona,Sierra Vista Southeast,31.4525,-110.219,14428
Arizona,Somerton,32.6018,-114.6963,14197
Arizona,Valencia West,32.1355,-111.1123,14101
Arizona,Vail,32.0217,-110.6937,13604
Arizona,Coolidge,32.9336,-111.5236,13218
Arizona,Chino Valley,34.7399,-112.4061,13020
Arizona,New Kingman-Butler,35.2645,-114.0091,12907
Arizona,Paradise Valley,33.5522,-111.9613,12658
Arizona,Saddlebrooke,32.5564,-110.8747,12574
Arizona,Camp Verde,34.5694,-111.857,12147
Arizona,Tucson Estates,32.1792,-111.1266,12069
Arizona,Cottonwood,34.7195,-112.0016,12029
Arizona,Verde Village,34.7119,-111.9941,12019
Arizona,Show Low,34.2651,-110.0383,11732
Arizona,Gold Canyon,33.3639,-111.423,11404
Arizona,Tucson Mountains,32.2822,-111.0773,10862
Arizona,Safford,32.8333,-109.696,10129
Arizona,Arizona City,32.7509,-111.6705,9868
Arizona,Sedona,34.8585,-111.7931,9684
Arizona,Picture Rocks,32.3247,-111.2599,9551
Arizona,Corona de Tucson,31.9503,-110.7835,9240
Arizona,Winslow,35.0242,-110.7093,9005
Arizona,Golden Valley,35.2061,-114.2328,8801
Arizona,Tuba City,36.125,-111.2467,8072
Arizona,Catalina,32.4848,-110.8997,7551
Arizona,Wickenburg,33.9948,-112.7589,7474
Arizona,Page,36.9418,-111.5133,7440
Arizona,Globe,33.3936,-110.7411,7249
Arizona,Tolleson,33.4484,-112.256,7216
Arizona,Youngtown,33.585,-112.3049,7056
Arizona,Litchfield Park,33.5018,-112.3595,6847
Arizona,Williamson,34.7082,-112.5343,6196
Arizona,Village of Oak Creek (Big Park),34.7813,-111.7606,6128
Arizona,Snowflake,34.5215,-110.0912,6104
Arizona,Doney Park,35.2656,-111.519,5910
Arizona,Rincon Valley,32.1101,-110.6889,5612
Arizona,Avra Valley,32.4195,-111.3393,5569
Arizona,Paulden,34.8897,-112.4937,5567
Arizona,Benson,31.9145,-110.3286,5355
Arizona,Guadalupe,33.3665,-111.9632,5322
Arizona,Thatcher,32.8127,-109.7665,5231
Arizona,Citrus Park,33.5282,-112.4392,5194
Arizona,Three Points,32.0596,-111.2865,5184
Arizona,Lake Montezuma,34.6369,-111.8009,5111
Arizona,Bisbee,31.398,-109.9318,4923
Arizona,Cave Creek,33.8362,-111.9821,4892
Arizona,Holbrook,34.9046,-110.1672,4858
Arizona,Summit,32.0621,-110.9486,4724
Arizona,Kayenta,36.7172,-110.2605,4670
Arizona,South Tucson,32.1955,-110.9692,4613
Arizona,Chinle,36.1511,-109.5787,4573
Arizona,Whiteriver,33.8398,-109.9608,4520
Arizona,Clarkdale,34.748,-112.0587,4424
Arizona,Eagar,34.105,-109.297,4395
Arizona,Dewey-Humboldt,34.5174,-112.2496,4326
Arizona,Avenue B and C,32.719,-114.66,4101
Arizona,Pinetop-Lakeside,34.1484,-109.966,4030
Arizona,Taylor,34.4427,-110.0985,3995
Arizona,San Carlos,33.3446,-110.4777,3987
Arizona,Clifton,33.0296,-109.284,3933
Arizona,Carefree,33.8232,-111.9133,3690
Arizona,Lake of the Woods,34.1526,-109.9943,3648
Arizona,Fort Defiance,35.7475,-109.068,3541
Arizona,Parker,34.034,-114.2282,3417
Arizona,St. Johns,34.5004,-109.3769,3417
Arizona,Cornville,34.739,-111.9086,3362
Arizona,Sacaton,33.0793,-111.7682,3254
Arizona,Whetstone,31.7189,-110.292,3236
Arizona,Willcox,32.2518,-109.8357,3213
Arizona,Williams,35.2466,-112.1833,3202
Arizona,San Manuel,32.606,-110.6471,3114
Arizona,Oracle,32.6085,-110.7826,3051
Arizona,Ajo,32.3923,-112.8839,3039
Arizona,Heber-Overgaard,34.4141,-110.5696,2898
Arizona,Pima,32.8919,-109.8443,2847
Arizona,Swift Trail Junction,32.7272,-109.7181,2810
Arizona,Desert Hills,34.5465,-114.378,2764
Arizona,Linden,34.2696,-110.1364,2760
Arizona,Mohave Valley,34.9024,-114.5714,2693
Arizona,Cordes Lakes,34.3103,-112.1073,2684
Arizona,Black Canyon City,34.071,-112.122,2677
Arizona,Red Rock,32.5612,-111.374,2625
Arizona,Timberline-Fernwood,35.3167,-111.5507,2572
Arizona,Kachina Village,35.0924,-111.696,2502
Arizona,Window Rock,35.6705,-109.063,2500
Arizona,Star Valley,34.2547,-111.2207,2484
Arizona,Colorado City,36.9701,-112.9853,2478
Arizona,Quartzsite,33.6675,-114.217,2413
Arizona,Superior,33.2851,-111.1109,2407
Arizona,Wellton,32.6401,-114.2152,2375
Arizona,White Mountain Lake,34.344,-109.9868,2335
Arizona,Central Heights-Midland City,33.4,-110.8153,2319
Arizona,Rio Verde,33.7266,-111.6758,2210
Arizona,Sells,31.9209,-111.8709,2121
Arizona,Morenci,33.0582,-109.3331,2028
Arizona,Pine,34.3803,-111.4605,1953
Arizona,Bagdad,34.5771,-113.177,1932
Arizona,Golden Shores,34.7819,-114.4777,1927
Arizona,Gila Bend,32.9662,-112.7155,1892
Arizona,Wagon Wheel,34.1975,-110.0271,1856
Arizona,Cibecue,34.0304,-110.492,1816
Arizona,Congress,34.1534,-112.8656,1811
Arizona,Valle Vista,35.4109,-113.8627,1802
Arizona,Grand Canyon Village,36.0595,-112.1579,1784
Arizona,Bylas,33.1277,-110.1149,1782
Arizona,Mescal,31.9674,-110.4366,1751
Arizona,Kearny,33.0564,-110.9071,1741
Arizona,Dolan Springs,35.5905,-114.2852,1734
Arizona,Casa Blanca,33.1155,-111.9081,1727
Arizona,Springerville,34.1719,-109.3069,1717
Arizona,Cienega Springs,34.1997,-114.2127,1690
Arizona,Fort Valley,35.3228,-111.7398,1682
Arizona,Red Lake,35.3615,-112.1721,1680
Arizona,St. David,31.886,-110.2215,1639
Arizona,Huachuca City,31.6308,-110.3422,1626
Arizona,Tubac,31.6107,-111.057,1581
Arizona,Centennial Park,36.9538,-112.9813,1578
Arizona,Mayer,34.4234,-112.2408,1558
Arizona,Beaver Dam,36.907,-113.9362,1552
Arizona,Miami,33.3951,-110.8724,1541
Arizona,Kaibito,36.592,-111.1071,1540
Arizona,Cactus Flats,32.7605,-109.7213,1524
Arizona,Mountain View Ranches,35.2336,-111.4728,1508
Arizona,North Fork,34.0106,-109.9595,1467
Arizona,Tonto Basin,33.8413,-111.3009,1444
Arizona,Lukachukai,36.4112,-109.2255,1424
Arizona,Meadview,35.9532,-114.0789,1420
Arizona,Pirtleville,31.3609,-109.5661,1412
Arizona,Pinetop Country Club,34.1163,-109.891,1409
Arizona,Tsaile,36.3024,-109.2187,1408
Arizona,Claypool,33.4061,-110.8419,1395
Arizona,St. Michaels,35.6606,-109.0962,1384
Arizona,Parks,35.2852,-111.9672,1382
Arizona,First Mesa,35.8317,-110.3689,1352
Arizona,Fredonia,36.9616,-112.5164,1323
Arizona,Scenic,36.7936,-114.0128,1321
Arizona,Peridot,33.3033,-110.459,1308
Arizona,Tombstone,31.7204,-110.0763,1308
Arizona,Joseph City,34.9637,-110.329,1307
Arizona,Donovan Estates,32.7094,-114.6781,1295
Arizona,Many Farms,36.3429,-109.6376,1243
Arizona,LeChee,36.8609,-111.4244,1236
Arizona,Canyon Day,33.7789,-110.0382,1205
Arizona,Dilkon,35.3529,-110.3072,1194
Arizona,Blackwater,33.0396,-111.5799,1190
Arizona,Bellemont,35.2425,-111.8138,1167
Arizona,Salome,33.7778,-113.6061,1162
Arizona,Spring Valley,34.3452,-112.1592,1143
Arizona,Peach Springs,35.5314,-113.432,1098
Arizona,Munds Park,34.9383,-111.629,1096
Arizona,Pinon,36.0989,-110.2191,1084
Arizona,Mammoth,32.6852,-110.7293,1076
Arizona,Mountainaire,35.0938,-111.6452,1068
Arizona,Willow Valley,34.9277,-114.6266,1059
Arizona,Arizona Village,34.8548,-114.5893,1057
Arizona,Kaibab Estates West,35.2748,-112.4985,1034
Arizona,Komatke,33.2953,-112.1615,1013
Arizona,Rainbow City,33.873,-109.9763,1001
Arizona,Hotevilla-Bacavi,35.9207,-110.6407,1001
Arizona,Arivaca Junction,31.739,-111.0738,970
Arizona,Queen Valley,33.2733,-111.3179,967
Arizona,Six Shooter Canyon,33.3668,-110.7746,958
Arizona,Strawberry,34.3909,-111.5027,943
Arizona,Leupp,35.2966,-111.0036,934
Arizona,Houck,35.2693,-109.2234,886
Arizona,Ak-Chin Village,33.0197,-112.0808,884
Arizona,Ganado,35.6919,-109.5557,883
Arizona,Wilhoit,34.4082,-112.6156,864
Arizona,Maricopa Colony,33.3626,-112.2268,854
Arizona,Second Mesa,35.8514,-110.498,843
Arizona,Naco,31.346,-109.9271,824
Arizona,Hondah,34.0943,-109.9344,814
Arizona,Patagonia,31.5447,-110.7455,804
Arizona,Sonoita,31.6656,-110.6391,803
Arizona,Sunsites,31.9417,-109.8408,790
Arizona,Mesa del Caballo,34.286,-111.2952,781
Arizona,Moenkopi,36.1125,-111.2212,771
Arizona,Chilchinbito,36.492,-110.0492,769
Arizona,Whitecone,35.6047,-110.08,768
Arizona,Ehrenberg,33.6142,-114.483,763
Arizona,Valle,35.6752,-112.1529,759
Arizona,Central,32.8692,-109.7908,758
Arizona,Seven Mile,33.7882,-109.9586,742
Arizona,Kykotsmovi Village,35.8102,-110.6568,736
Arizona,Cameron,35.8532,-111.4286,734
Arizona,Shongopovi,35.8097,-110.5334,711
Arizona,Bouse,33.8984,-113.9962,707
Arizona,Duncan,32.75,-109.0884,694
Arizona,St. Johns,33.3085,-112.1974,690
Arizona,Wittmann,33.775,-112.5251,684
Arizona,Bluewater,34.1704,-114.2629,682
Arizona,East Fork,33.8107,-109.921,672
Arizona,Upper Santan Village,33.1153,-111.7419,665
Arizona,J-Six Ranchettes,31.9666,-110.4664,647
Arizona,Round Rock,36.5043,-109.4632,640
Arizona,Gila Crossing,33.273,-112.1627,636
Arizona,Low Mountain,35.9481,-110.1005,631
Arizona,Arivaca,31.5749,-111.2926,623
Arizona,Parker Strip,34.2707,-114.1297,621
Arizona,Stotonic Village,33.1528,-111.8167,610
Arizona,Cactus Forest,32.9578,-111.3169,606
Arizona,Tusayan,35.955,-112.1202,603
Arizona,York,32.9174,-109.196,599
Arizona,Dudleyville,32.86,-110.7165,597
Arizona,Blue Ridge,34.6407,-111.1074,594
Arizona,Elephant Head,31.7659,-110.992,588
Arizona,Young,34.1241,-110.9383,588
Arizona,Dennehotso,36.829,-109.8757,587
Arizona,Sacaton Flats Village,33.0559,-111.659,576
Arizona,Sanders,35.2096,-109.3224,575
Arizona,Icehouse Canyon,33.3461,-110.8012,574
Arizona,Rancho Mesa Verde,32.5944,-114.6551,571
Arizona,Miracle Valley,31.3829,-110.1485,571
Arizona,Gadsden,32.5564,-114.781,571
Arizona,Walnut Creek,35.1312,-114.1266,571
Arizona,Yarnell,34.2282,-112.7631,570
Arizona,Aguila,33.9375,-113.1665,565
Arizona,Sawmill,35.8941,-109.1572,564
Arizona,Stanfield,32.8794,-111.9628,558
Arizona,Wheatfields,33.4709,-110.8161,556
Arizona,Rock Point,36.6968,-109.6195,552
Arizona,Gisela,34.1018,-111.288,536
Arizona,Circle City,33.8149,-112.581,522
Arizona,Hayden,32.9949,-110.7799,512
Arizona,Teec Nos Pos,36.9333,-109.0641,507
Arizona,Nazlini,35.9112,-109.4747,505
Arizona,Peeples Valley,34.2772,-112.7653,499
Arizona,Orange Grove Mobile Manor,32.5985,-114.6606,495
Arizona,Burnside,35.7534,-109.6248,494
Arizona,Shonto,36.587,-110.6625,494
Arizona,McNary,34.0922,-109.8514,484
Arizona,Pinedale,34.3207,-110.2599,482
Arizona,Santa Rosa,32.3326,-112.0464,474
Arizona,Lazy Y U,35.1369,-113.9685,474
Arizona,San Jose,32.818,-109.5948,467
Arizona,Cane Beds,36.9342,-112.9118,466
Arizona,Brenda,33.6721,-113.9379,466
Arizona,Jerome,34.7471,-112.1075,464
Arizona,Goodyear Village,33.1973,-111.8723,463
Arizona,Round Valley,34.1878,-111.3018,459
Arizona,Wenden,33.8324,-113.5432,458
Arizona,Winslow West,34.9926,-110.7068,457
Arizona,Pinal,33.3801,-110.7572,456
Arizona,Tonalea,36.3217,-110.9667,451
Arizona,Roosevelt Estates,33.6202,-110.9998,449
Arizona,Seligman,35.3256,-112.8572,446
Arizona,Oak Creek Canyon,34.9489,-111.7504,442
Arizona,Lower Santan Village,33.1428,-111.7853,437
Arizona,Rough Rock,36.4095,-109.8684,428
Arizona,So-Hi,35.2527,-114.1415,428
Arizona,Tacna,32.7004,-113.9618,425
Arizona,Elfrida,31.6788,-109.6878,421
Arizona,Tees Toh,35.486,-110.4056,420
Arizona,Vicksburg,33.7272,-113.8259,418
Arizona,Bowie,32.3248,-109.4845,406
Arizona,Mesquite Creek,34.9607,-114.5714,403
Arizona,Solomon,32.8138,-109.6289,399
Arizona,Greenehaven,36.996,-111.5566,381
Arizona,Turkey Creek,33.8011,-109.9461,377
Arizona,Cedar Creek,33.8914,-110.1957,372
Arizona,Greasewood,35.5286,-109.8609,372
Arizona,La Paz Valley,33.5582,-114.2435,368
Arizona,Ash Fork,35.2172,-112.4913,361
Arizona,Pisinemo,32.0349,-112.3192,359
Arizona,Bitter Springs,36.6118,-111.6475,355
Arizona,Red Mesa,36.9711,-109.3698,354
Arizona,Shumway,34.4145,-110.0649,347
Arizona,Jeddito,35.7682,-110.1278,346
Arizona,White Hills,35.7242,-114.4004,345
Arizona,Clay Springs,34.3593,-110.3043,331
Arizona,Tumacacori-Carmen,31.571,-111.0477,329
Arizona,El Prado Estates,32.7062,-114.5215,320
Arizona,Fort Thomas,33.0304,-109.9613,319
Arizona,Yuma Proving Ground,32.8652,-114.4369,313
Arizona,Wet Camp Village,33.1414,-111.9004,300
Arizona,Winkelman,32.9817,-110.7617,296
Arizona,Keams Canyon,35.8208,-110.2037,265
Arizona,Wall Lane,32.6573,-114.7105,262
Arizona,Sacate Village,33.1416,-111.9811,260
Arizona,East Globe,33.3511,-110.706,259
Arizona,Del Muerto,36.1869,-109.4348,258
Arizona,Dateland,32.8209,-113.5418,257
Arizona,Littlefield,36.8659,-113.936,256
Arizona,Picacho,32.7102,-111.4942,250
Arizona,Crystal Beach,34.5714,-114.3926,250
Arizona,Nelson,32.4298,-111.2649,249
Arizona,Chuichu,32.7403,-111.7822,240
Arizona,Steamboat,35.7526,-109.8506,235
Arizona,Sunizona,31.8855,-109.6332,233
Arizona,Topawa,31.8078,-111.8305,233
Arizona,Indian Wells,35.4092,-110.1144,232
Arizona,Deer Creek,34.0623,-111.3495,230
Arizona,Chloride,35.4097,-114.1972,229
Arizona,Tolani Lake,35.431,-110.8432,227
Arizona,Beaver Valley,34.3429,-111.2999,226
Arizona,Drysdale,32.6452,-114.7068,225
Arizona,Palominas,31.3876,-110.1151,222
Arizona,Cornfields,35.6513,-109.6758,221
Arizona,Tonto Village,34.3198,-111.1393,209
Arizona,San Miguel,31.6295,-111.7801,205
Arizona,Cibola,33.3741,-114.6763,198
Arizona,Amado,31.6974,-111.0608,198
Arizona,Oxbow Estates,34.1803,-111.343,198
Arizona,Top-of-the-World,33.3477,-110.9997,189
Arizona,Morristown,33.8559,-112.6129,186
Arizona,Poston,33.9921,-114.4046,183
Arizona,McNeal,31.6101,-109.6583,182
Arizona,Klagetoh,35.5,-109.5305,181
Arizona,Dragoon,32.0276,-110.0368,178
Arizona,South Komelik,31.7145,-111.7744,176
Arizona,Bryce,32.9258,-109.8231,173
Arizona,Wellton Hills,32.6232,-114.1452,167
Arizona,Cottonwood,36.0724,-109.8902,167
Arizona,Clacks Canyon,35.2204,-114.0723,167
Arizona,Kino Springs,31.3641,-110.8097,166
Arizona,Kleindale,32.2681,-110.9146,165
Arizona,Elgin,31.6666,-110.5327,162
Arizona,San Simon,32.2682,-109.2302,158
Arizona,Copper Hill,33.4309,-110.7465,158
Arizona,Pinion Pines,35.1466,-113.9058,158
Arizona,Forest Lakes,34.3299,-110.8107,155
Arizona,Woodruff,34.7919,-110.0259,154
Arizona,Sun Valley,34.9829,-110.032,153
Arizona,Sehili,36.2808,-109.1855,153
Arizona,East Verde Estates,34.2983,-111.3646,151
Arizona,Arlington,33.3346,-112.7748,150
Arizona,Anegam,32.3742,-112.035,149
Arizona,Alpine,33.8455,-109.1437,146
Arizona,Dripping Springs,33.105,-110.7551,142
Arizona,Pine Lake,35.0887,-113.8739,142
Arizona,Kaibab,36.8797,-112.7256,140
Arizona,Red Rock,36.6011,-109.0645,136
Arizona,Wikieup,34.693,-113.5995,135
Arizona,Padre Ranchitos,32.6496,-114.6416,133
Arizona,Antares,35.423,-113.8083,132
Arizona,Maish Vaya,32.1703,-112.1342,129
Arizona,Vernon,34.2479,-109.6899,126
Arizona,Seba Dalkai,35.4789,-110.4511,126
Arizona,Gu Oidak,31.9206,-112.0235,126
Arizona,Whispering Pines,34.3727,-111.2812,124
Arizona,Sweet Water Village,33.12,-111.8379,123
Arizona,Why,32.259,-112.7306,122
Arizona,Christopher Creek,34.3207,-111.0071,121
Arizona,Ali Chuk,31.8169,-112.5584,119
Arizona,Oljato-Monument Valley,36.9872,-110.2096,115
Arizona,Fort Apache,33.7901,-109.9886,113
Arizona,Ali Chukson,31.9115,-111.8016,113
Arizona,Theba,32.9182,-112.8898,111
Arizona,Cowlic,31.8047,-111.9876,105
Arizona,Rye,34.0978,-111.3543,104
Arizona,Truxton,35.4904,-113.563,104
Arizona,Hackberry,35.3401,-113.7256,103
Arizona,Oatman,35.0274,-114.3839,102
Arizona,Jakes Corner,34.0083,-111.3202,98
Arizona,Yucca,34.863,-114.1461,96
Arizona,Martinez Lake,32.9755,-114.4682,94
Arizona,Rillito,32.4157,-111.1549,94
Arizona,Vaiva Vo,32.7167,-111.9269,93
Arizona,Utting,33.8544,-113.9129,92
Arizona,Carrizo,33.9794,-110.3311,92
Arizona,Freedom Acres,34.3199,-111.3052,90
Arizona,Mormon Lake,34.9111,-111.4552,90
Arizona,Wahak Hotrontk,32.1747,-112.3663,88
Arizona,Washington Park,34.4004,-111.271,85
Arizona,Cutter,33.3584,-110.6593,84
Arizona,Kaka,32.5114,-112.3166,83
Arizona,Campo Bonito,32.5629,-110.6984,83
Arizona,Katherine,35.2208,-114.5613,76
Arizona,Franklin,32.677,-109.0721,75
Arizona,Haivana Nakya,32.0052,-111.7124,72
Arizona,Beyerville,31.392,-110.8749,72
Arizona,Summerhaven,32.4416,-110.7766,71
Arizona,Buckshot,32.7403,-114.4831,70
Arizona,McConnico,35.1636,-114.0897,63
Arizona,Ali Molina,31.9025,-111.7804,61
Arizona,Greer,34.0058,-109.4606,58
Arizona,Concho,34.4716,-109.614,54
Arizona,Oak Springs,35.4761,-109.1318,54
Arizona,Moccasin,36.9098,-112.7545,53
Arizona,Mojave Ranch Estates,34.9449,-114.5906,53
Arizona,Ventana,32.468,-112.2434,52
Arizona,Hunter Creek,34.307,-111.0165,51
Arizona,Wintersburg,33.4187,-112.8665,51
Arizona,Ak Chin,32.2873,-112.0091,50
Arizona,Chiawuli Tak,31.941,-111.7765,48
Arizona,El Capitan,33.2383,-110.7833,48
Arizona,Comobabi,32.0538,-111.8029,44
Arizona,Ko Vaya,32.0815,-111.8959,43
Arizona,Mead Ranch,34.3461,-111.1428,42
Arizona,Santa Cruz,33.2327,-112.1594,39
Arizona,Nutrioso,33.9514,-109.2059,39
Arizona,Valentine,35.3885,-113.6591,39
Arizona,Hard Rock,36.0302,-110.5042,38
Arizona,Kohatk,32.5783,-112.003,37
Arizona,Haigler Creek,34.2196,-110.9714,35
Arizona,Flowing Springs,34.3093,-111.3347,34
Arizona,Geronimo Estates,34.3694,-111.3618,30
Arizona,Kohls Ranch,34.3211,-111.0839,30
Arizona,Charco,32.2473,-112.6001,27
Arizona,Roosevelt,33.6574,-111.1271,26
Arizona,Tonopah,33.488,-112.9308,23
Arizona,Crozier,35.4228,-113.6486,21
Arizona,Wide Ruins,35.4174,-109.4996,20
Arizona,Lupton,35.3547,-109.0528,19
Arizona,Tat Momoli,32.6012,-111.8861,18
Arizona,Nolic,32.0342,-111.955,12
Arizona,Bear Flat,34.2924,-111.0674,11
Arizona,Rock House,33.6307,-110.9411,10
Arizona,Sunwest,33.651,-113.4091,5
Arizona,Alamo Lake,34.2559,-113.5003,4
Arizona,Topock,34.72,-114.4788,2
Arizona,Aztec,32.8081,-113.4427,2
Arizona,Willow Canyon,32.3881,-110.701,2
Arizona,Toyei,35.7038,-109.9382,2
Arkansas,Little Rock,34.724,-92.3576,202591
Arkansas,Fayetteville,36.0715,-94.1666,93949
Arkansas,Fort Smith,35.3493,-94.3709,89142
Arkansas,Springdale,36.1901,-94.1594,84161
Arkansas,Jonesboro,35.8198,-90.679,78576
Arkansas,Rogers,36.3181,-94.1523,69908
Arkansas,North Little Rock,34.7818,-92.2351,64591
Arkansas,Conway,35.0744,-92.4671,64134
Arkansas,Bentonville,36.353,-94.2503,54164
Arkansas,Pine Bluff,34.2116,-92.0176,41253
Arkansas,Hot Springs,34.4894,-93.0503,37930
Arkansas,Benton,34.5774,-92.5726,35014
Arkansas,Sherwood,34.852,-92.2045,32731
Arkansas,Bella Vista,36.4666,-94.2663,30104
Arkansas,Paragould,36.0523,-90.5105,29537
Arkansas,Jacksonville,34.8805,-92.1306,29477
Arkansas,Texarkana,33.4363,-93.9871,29387
Arkansas,Russellville,35.2763,-93.1387,28940
Arkansas,Cabot,34.9751,-92.0283,26569
Arkansas,West Memphis,35.1496,-90.1993,24520
Arkansas,Van Buren,35.4512,-94.354,23218
Arkansas,Searcy,35.2411,-91.7352,22937
Arkansas,Bryant,34.6151,-92.4913,20663
Arkansas,Maumelle,34.8523,-92.4,19251
Arkansas,Centerton,36.3551,-94.2977,17792
Arkansas,El Dorado,33.219,-92.6641,17756
Arkansas,Siloam Springs,36.1846,-94.5315,17287
Arkansas,Hot Springs Village,34.6581,-92.9686,15861
Arkansas,Marion,35.2042,-90.2067,13752
Arkansas,Blytheville,35.9341,-89.9051,13406
Arkansas,Harrison,36.2426,-93.1177,13069
Arkansas,Forrest City,35.0136,-90.7932,13015
Arkansas,Mountain Home,36.3351,-92.3841,12825
Arkansas,Batesville,35.7686,-91.6227,11191
Arkansas,Magnolia,33.2767,-93.2262,11162
Arkansas,Malvern,34.3736,-92.8212,10867
Arkansas,Camden,33.5677,-92.8491,10612
Arkansas,Arkadelphia,34.1274,-93.0709,10380
Arkansas,Lowell,36.2559,-94.1534,9839
Arkansas,Helena-West Helena,34.5313,-90.6201,9519
Arkansas,Greenwood,35.2113,-94.2394,9516
Arkansas,Clarksville,35.4539,-93.4816,9381
Arkansas,Hope,33.6682,-93.5889,8952
Arkansas,Monticello,33.6248,-91.7937,8442
Arkansas,Beebe,35.0724,-91.9011,8437
Arkansas,Wynne,35.2353,-90.7884,8314
Arkansas,Stuttgart,34.4952,-91.5486,8264
Arkansas,Newport,35.6238,-91.2317,8005
Arkansas,Farmington,36.0366,-94.2525,7584
Arkansas,Trumann,35.677,-90.5259,7399
Arkansas,Pocahontas,36.2636,-90.9702,7371
Arkansas,East End,34.5545,-92.3275,7137
Arkansas,Prairie Grove,35.9861,-94.3034,7045
Arkansas,Morrilton,35.1555,-92.7389,6992
Arkansas,Osceola,35.6942,-89.9934,6976
Arkansas,Heber Springs,35.4996,-92.0293,6969
Arkansas,Pea Ridge,36.4467,-94.1208,6559
Arkansas,De Queen,34.0422,-94.3421,6105
Arkansas,Ward,35.0138,-91.9577,6052
Arkansas,Alma,35.4924,-94.2137,5825
Arkansas,Greenbrier,35.2288,-92.3836,5707
Arkansas,Berryville,36.371,-93.5704,5682
Arkansas,Mena,34.5808,-94.2371,5589
Arkansas,White Hall,34.2752,-92.1006,5581
Arkansas,Cave Springs,36.2684,-94.2195,5495
Arkansas,Warren,33.6118,-92.0677,5453
Arkansas,Walnut Ridge,36.0848,-90.9467,5384
Arkansas,Piney,34.5029,-93.1444,5238
Arkansas,Sheridan,34.3216,-92.4431,4920
Arkansas,Crossett,33.1268,-91.963,4822
Arkansas,Barling,35.3313,-94.2752,4782
Arkansas,Cherokee Village,36.2913,-91.5694,4780
Arkansas,Rockwell,34.4643,-93.1338,4548
Arkansas,Dardanelle,35.2263,-93.1659,4517
Arkansas,Shannon Hills,34.6176,-92.4022,4490
Arkansas,Tontitown,36.1674,-94.2421,4301
Arkansas,Vilonia,35.0787,-92.2154,4288
Arkansas,Southside,35.7202,-91.6302,4279
Arkansas,Lonoke,34.7905,-91.9074,4276
Arkansas,Ashdown,33.6745,-94.1266,4261
Arkansas,Nashville,33.9419,-93.8517,4153
Arkansas,Gibson,34.9022,-92.2408,4111
Arkansas,Brookland,35.8971,-90.5717,4064
Arkansas,Dumas,33.8834,-91.4856,4001
Arkansas,Haskell,34.5092,-92.6419,3956
Arkansas,McGehee,33.628,-91.3953,3849
Arkansas,Booneville,35.1393,-93.9175,3809
Arkansas,Gentry,36.2596,-94.4909,3790
Arkansas,Manila,35.8848,-90.1654,3682
Arkansas,Piggott,36.3872,-90.1989,3622
Arkansas,Johnson,36.1339,-94.1743,3609
Arkansas,Elkins,36.0172,-94.0235,3602
Arkansas,Landmark,34.6104,-92.316,3585
Arkansas,Marianna,34.7736,-90.7675,3575
Arkansas,Gravette,36.4283,-94.3685,3547
Arkansas,Ozark,35.5019,-93.8484,3542
Arkansas,Austin,35.0059,-91.9896,3460
Arkansas,Fordyce,33.8181,-92.4174,3396
Arkansas,Waldron,34.9033,-94.0948,3386
Arkansas,Alexander,34.6186,-92.4512,3385
Arkansas,Corning,36.4137,-90.5836,3227
Arkansas,Paris,35.2891,-93.7249,3176
Arkansas,Pottsville,35.2306,-93.0608,3140
Arkansas,Prescott,33.8043,-93.3912,3101
Arkansas,DeWitt,34.2874,-91.3383,3056
Arkansas,Little Flock,36.3833,-94.1373,3055
Arkansas,Bethel Heights,36.2212,-94.1298,3015
Arkansas,Green Forest,36.3347,-93.431,2972
Arkansas,Gosnell,35.9649,-89.9686,2910
Arkansas,Huntsville,36.0987,-93.7332,2879
Arkansas,Mountain View,35.8616,-92.1097,2877
Arkansas,Atkins,35.2409,-92.9496,2859
Arkansas,North Crossett,33.1741,-91.9317,2756
Arkansas,Brinkley,34.8898,-91.1898,2700
Arkansas,Hoxie,36.036,-90.9736,2598
Arkansas,Charleston,35.2945,-94.0484,2588
Arkansas,Salem,34.6309,-92.5615,2544
Arkansas,Hamburg,33.2248,-91.7972,2536
Arkansas,Holiday Island,36.4817,-93.713,2533
Arkansas,Bald Knob,35.3125,-91.5713,2522
Arkansas,Clinton,35.579,-92.4557,2509
Arkansas,England,34.5454,-91.9674,2477
Arkansas,Lavaca,35.3302,-94.1829,2450
Arkansas,Horseshoe Bend,36.2187,-91.7383,2440
Arkansas,Bono,35.9111,-90.8008,2409
Arkansas,Elm Springs,36.2062,-94.2379,2361
Arkansas,West Fork,35.9349,-94.1811,2331
Arkansas,Lake City,35.8194,-90.4539,2326
Arkansas,Lincoln,35.9488,-94.4175,2294
Arkansas,Marked Tree,35.5279,-90.4266,2286
Arkansas,Prairie Creek,36.3295,-94.0589,2217
Arkansas,Harrisburg,35.5638,-90.7216,2212
Arkansas,Star City,33.9408,-91.84,2173
Arkansas,Gassville,36.2849,-92.4868,2171
Arkansas,Eureka Springs,36.4108,-93.7449,2166
Arkansas,Fairfield Bay,35.6011,-92.2662,2108
Arkansas,Goshen,36.1025,-94.0016,2102
Arkansas,Lake Hamilton,34.4296,-93.0764,2084
Arkansas,Glenwood,34.3283,-93.5273,2068
Arkansas,Lake Village,33.3292,-91.2848,2065
Arkansas,Leachville,35.9115,-90.255,2039
Arkansas,Carlisle,34.7954,-91.7405,2033
Arkansas,Danville,35.0525,-93.3912,2028
Arkansas,Dermott,33.5262,-91.4323,2021
Arkansas,Augusta,35.2866,-91.3609,1998
Arkansas,Mayflower,34.9803,-92.4194,1984
Arkansas,Bull Shoals,36.3736,-92.5915,1952
Arkansas,Cave City,35.9482,-91.5468,1922
Arkansas,Des Arc,34.9784,-91.5068,1905
Arkansas,Bay,35.7461,-90.5521,1876
Arkansas,Rector,36.2642,-90.2935,1862
Arkansas,Judsonia,35.2764,-91.6416,1854
Arkansas,Gurdon,33.916,-93.1539,1840
Arkansas,Earle,35.2734,-90.4643,1831
Arkansas,Melbourne,36.064,-91.8815,1830
Arkansas,Decatur,36.3411,-94.4513,1773
Arkansas,Lepanto,35.6085,-90.333,1732
Arkansas,Eudora,33.1189,-91.264,1728
Arkansas,Lamar,35.4444,-93.3947,1719
Arkansas,Tuckerman,35.7257,-91.2021,1707
Arkansas,Smackover,33.3636,-92.7314,1630
Arkansas,Highfill,36.2744,-94.3239,1587
Arkansas,McCrory,35.2573,-91.1973,1583
Arkansas,Salem,36.3704,-91.8217,1566
Arkansas,Mulberry,35.5085,-94.0748,1543
Arkansas,Wrightsville,34.6207,-92.2196,1542
Arkansas,Clarendon,34.6947,-91.3061,1526
Arkansas,Monette,35.8932,-90.3441,1506
Arkansas,Redfield,34.4393,-92.1885,1505
Arkansas,Murfreesboro,34.0703,-93.6941,1495
Arkansas,Hazen,34.7814,-91.5581,1481
Arkansas,McAlmont,34.7925,-92.196,1447
Arkansas,Cedarville,35.5831,-94.3616,1424
Arkansas,Kensett,35.2352,-91.6713,1400
Arkansas,Perryville,35.012,-92.8029,1373
Arkansas,Flippin,36.2773,-92.5935,1345
Arkansas,Dover,35.391,-93.1142,1337
Arkansas,Marshall,35.9085,-92.6465,1329
Arkansas,Avilla,34.6948,-92.5861,1325
Arkansas,Stamps,33.355,-93.4979,1258
Arkansas,Diaz,35.6488,-91.2589,1224
Arkansas,Greenland,35.9962,-94.1909,1213
Arkansas,Marmaduke,36.19,-90.3851,1212
Arkansas,Hampton,33.5348,-92.4666,1181
Arkansas,Newark,35.7076,-91.4434,1180
Arkansas,Yellville,36.2288,-92.6861,1178
Arkansas,Waldo,33.3519,-93.2954,1151
Arkansas,West Crossett,33.148,-92.017,1144
Arkansas,Ash Flat,36.2365,-91.6067,1137
Arkansas,Caraway,35.7602,-90.3221,1133
Arkansas,Oak Grove Heights,36.1264,-90.5034,1104
Arkansas,Mineral Springs,33.8777,-93.9214,1085
Arkansas,Hughes,34.9481,-90.4714,1056
Arkansas,Mansfield,35.0639,-94.2343,1053
Arkansas,Wooster,35.1998,-92.4503,1042
Arkansas,Midway,36.3922,-92.4755,1036
Arkansas,Sulphur Springs,34.1714,-92.1321,1032
Arkansas,Kibler,35.4252,-94.2361,1005
Arkansas,Mount Ida,34.5492,-93.6299,996
Arkansas,Highland,36.2694,-91.5198,982
Arkansas,Foreman,33.7195,-94.3977,977
Arkansas,Genoa,33.3775,-93.8824,972
Arkansas,Rison,33.96,-92.1936,967
Arkansas,Luxora,35.7577,-89.9295,942
Arkansas,London,35.3276,-93.2435,936
Arkansas,Ola,35.0314,-93.224,934
Arkansas,Mammoth Spring,36.4924,-91.5411,929
Arkansas,Horatio,33.9427,-94.3562,920
Arkansas,Dierks,34.12,-94.0173,916
Arkansas,Lewisville,33.3601,-93.584,915
Arkansas,Tumbling Shoals,35.5471,-91.9675,902
Arkansas,Calico Rock,36.122,-92.1259,888
Arkansas,Cotter,36.2819,-92.5208,886
Arkansas,Marvell,34.5563,-90.9153,855
Arkansas,Sardis,34.533,-92.4067,833
Arkansas,Greers Ferry,35.575,-92.166,821
Arkansas,Coal Hill,35.438,-93.6652,820
Arkansas,Roland,34.9022,-92.5175,820
Arkansas,Fouke,33.2622,-93.8852,808
Arkansas,East Camden,33.6084,-92.7445,798
Arkansas,Parkin,35.2612,-90.5535,794
Arkansas,Hackett,35.188,-94.4103,784
Arkansas,Cammack Village,34.7808,-92.345,778
Arkansas,Bearden,33.7277,-92.6187,776
Arkansas,Lakeview,36.3739,-92.5387,775
Arkansas,Dyer,35.4944,-94.1388,772
Arkansas,Stephens,33.4209,-93.0696,770
Arkansas,Norphlet,33.3199,-92.662,766
Arkansas,Wilson,35.566,-90.0418,766
Arkansas,Madison,35.018,-90.7311,759
Arkansas,Diamond City,36.4576,-92.911,757
Arkansas,Guy,35.3273,-92.3367,752
Arkansas,Keiser,35.674,-90.0958,751
Arkansas,Hardy,36.3196,-91.4815,743
Arkansas,Magazine,35.1539,-93.8079,740
Arkansas,Oppelo,35.1006,-92.7736,737
Arkansas,Plumerville,35.1594,-92.6431,734
Arkansas,Swifton,35.8245,-91.1294,733
Arkansas,Kirby,34.2543,-93.6549,721
Arkansas,Tyronza,35.4868,-90.356,716
Arkansas,Desha,35.7305,-91.6856,715
Arkansas,Sweet Home,34.6674,-92.2463,712
Arkansas,Higginson,35.1968,-91.7152,705
Arkansas,Altheimer,34.3274,-91.8473,696
Arkansas,Quitman,35.3817,-92.2147,694
Arkansas,Magnet Cove,34.4492,-92.8377,692
Arkansas,Ozark Acres,36.2999,-91.3871,692
Arkansas,Amity,34.2662,-93.4634,681
Arkansas,Bradford,35.422,-91.4552,678
Arkansas,Rockport,34.4071,-92.8067,676
Arkansas,Altus,35.4468,-93.7644,665
Arkansas,Gould,33.9872,-91.564,663
Arkansas,Knoxville,35.3775,-93.3618,660
Arkansas,Weiner,35.6197,-90.9053,647
Arkansas,Imboden,36.1997,-91.1774,640
Arkansas,Wickes,34.2997,-94.3273,637
Arkansas,Bauxite,34.5599,-92.4997,629
Arkansas,McRae,35.1136,-91.8262,616
Arkansas,Sulphur Rock,35.7516,-91.5003,609
Arkansas,Caddo Valley,34.1807,-93.0846,595
Arkansas,Lockesburg,33.9729,-94.1796,594
Arkansas,Garfield,36.4554,-93.9758,593
Arkansas,Black Rock,36.1062,-91.1075,590
Arkansas,Bonanza,35.2318,-94.4161,587
Arkansas,Holland,35.166,-92.277,586
Arkansas,Mountain Pine,34.5696,-93.1715,585
Arkansas,Taylor,33.0998,-93.4618,579
Arkansas,Cherry Valley,35.4028,-90.7536,575
Arkansas,Oxford,36.209,-91.9183,573
Arkansas,Gillett,34.1192,-91.3791,564
Arkansas,Jasper,36.0121,-93.1875,547
Arkansas,Summit,36.2522,-92.6883,544
Arkansas,Cotton Plant,35.0059,-91.252,529
Arkansas,Mountainburg,35.6496,-94.1624,528
Arkansas,Hermitage,33.4474,-92.1715,525
Arkansas,De Valls Bluff,34.7859,-91.4611,520
Arkansas,Turrell,35.3746,-90.2704,517
Arkansas,Hartman,35.4353,-93.6282,516
Arkansas,Elaine,34.3086,-90.8533,509
Arkansas,Palestine,34.9703,-90.9082,506
Arkansas,Junction City,33.0221,-92.7236,503
Arkansas,Pangburn,35.4261,-91.8394,500
Arkansas,Hartford,35.0234,-94.3794,499
Arkansas,Joiner,35.5074,-90.1507,498
Arkansas,Dennard,35.7479,-92.55,496
Arkansas,Grannis,34.2402,-94.322,496
Arkansas,Traskwood,34.4525,-92.6664,495
Arkansas,Rose Bud,35.3212,-92.0765,494
Arkansas,Huntington,35.0817,-94.2663,490
Arkansas,Avoca,36.3947,-94.0658,487
Arkansas,Tull,34.4412,-92.5859,484
Arkansas,Sulphur Springs,36.4841,-94.4601,481
Arkansas,Fountain Lake,34.6098,-92.9198,475
Arkansas,Salesville,36.2391,-92.2775,473
Arkansas,Salado,35.6954,-91.5923,472
Arkansas,College Station,34.7005,-92.2284,469
Arkansas,Plainview,34.9899,-93.2979,467
Arkansas,Norfork,36.2095,-92.2778,465
Arkansas,Humphrey,34.4224,-91.7025,463
Arkansas,Crawfordsville,35.2267,-90.3242,462
Arkansas,Central City,35.3364,-94.238,461
Arkansas,Leola,34.1701,-92.5914,460
Arkansas,Holly Grove,34.6015,-91.2003,460
Arkansas,Yarborough Landing,33.7188,-94.0093,457
Arkansas,Caldwell,35.0748,-90.8095,451
Arkansas,Huttig,33.0403,-92.1797,448
Arkansas,Gateway,36.4889,-93.9331,436
Arkansas,Cushman,35.8658,-91.7781,433
Arkansas,Calion,33.3284,-92.5402,429
Arkansas,Bergman,36.3128,-93.0112,426
Arkansas,Ravenden,36.2432,-91.2513,426
Arkansas,Portia,36.0849,-91.071,424
Arkansas,Evening Shade,36.0699,-91.6219,420
Arkansas,Lafe,36.2092,-90.5043,418
Arkansas,Wilmot,33.057,-91.5779,416
Arkansas,Emmet,33.7225,-93.4662,415
Arkansas,Natural Steps,34.8743,-92.4978,413
Arkansas,Bellefonte,36.1999,-93.047,411
Arkansas,Jones Mills,34.4449,-92.9015,411
Arkansas,Hector,35.4629,-92.9791,411
Arkansas,Strong,33.1079,-92.3556,410
Arkansas,Bradley,33.1001,-93.6569,405
Arkansas,Subiaco,35.2974,-93.6394,401
Arkansas,Appleton,35.4108,-92.8753,399
Arkansas,Lost Bridge Village,36.3897,-93.9155,397
Arkansas,Wilmar,33.6264,-91.9293,395
Arkansas,Reyno,36.3609,-90.759,391
Arkansas,Oak Grove,36.4643,-93.4302,386
Arkansas,Damascus,35.3671,-92.4107,382
Arkansas,McNeil,33.3479,-93.2084,381
Arkansas,Maynard,36.4215,-90.9018,379
Arkansas,Floyd,35.1989,-91.9645,377
Arkansas,Midway,34.2499,-92.9734,377
Arkansas,Arkansas City,33.6089,-91.2049,376
Arkansas,Acorn,34.6388,-94.2001,376
Arkansas,Leslie,35.8295,-92.556,375
Arkansas,Alpena,36.2928,-93.3037,374
Arkansas,Winslow,35.8015,-94.1318,365
Arkansas,Viola,36.3992,-91.987,358
Arkansas,Sparkman,33.9172,-92.85,355
Arkansas,Western Grove,36.1011,-92.9546,354
Arkansas,Mount Pleasant,35.9814,-91.7774,353
Arkansas,Bigelow,34.9976,-92.6314,352
Arkansas,Pleasant Plains,35.5546,-91.6273,352
Arkansas,Kingsland,33.858,-92.2978,347
Arkansas,Woodson,34.5397,-92.2225,346
Arkansas,Hatfield,34.4845,-94.3799,345
Arkansas,Thornton,33.7749,-92.4877,339
Arkansas,Vanndale,35.3153,-90.7711,339
Arkansas,Dyess,35.5893,-90.2133,339
Arkansas,Clarkedale,35.297,-90.2103,336
Arkansas,Batavia,36.2479,-93.2158,328
Arkansas,Lake View,34.4212,-90.8133,327
Arkansas,Portland,33.2379,-91.5109,325
Arkansas,Cove,34.439,-94.4223,319
Arkansas,Enola,35.1959,-92.2066,318
Arkansas,Twin Groves,35.3292,-92.4057,317
Arkansas,Belleville,35.0915,-93.4458,312
Arkansas,Armorel,35.9256,-89.798,312
Arkansas,Patterson,35.259,-91.235,310
Arkansas,Henderson,36.3772,-92.2189,309
Arkansas,Pearcy,34.4355,-93.2882,306
Arkansas,Cincinnati,36.0453,-94.5273,306
Arkansas,Grady,34.0788,-91.6976,305
Arkansas,Fredonia (Biscoe),34.8194,-91.4102,305
Arkansas,Biggers,36.3314,-90.8007,305
Arkansas,Norman,34.459,-93.6768,303
Arkansas,Grubbs,35.654,-91.0755,301
Arkansas,Branch,35.3083,-93.9554,296
Arkansas,Colt,35.1329,-90.8129,293
Arkansas,Emerson,33.0973,-93.196,293
Arkansas,Bee Branch,35.4626,-92.401,293
Arkansas,Mitchellville,33.9053,-91.4984,293
Arkansas,Center Ridge,35.3807,-92.5756,290
Arkansas,Prattsville,34.3185,-92.5431,289
Arkansas,Blevins,33.8713,-93.5782,288
Arkansas,Delight,34.0295,-93.5066,288
Arkansas,Wilton,33.7387,-94.148,287
Arkansas,Centerville,35.1157,-93.1715,283
Arkansas,Cash,35.8012,-90.9316,280
Arkansas,Wheatley,34.9212,-91.1063,279
Arkansas,Donaldson,34.235,-92.9195,275
Arkansas,Menifee,35.1497,-92.5504,274
Arkansas,Lead Hill,36.4136,-92.9072,274
Arkansas,Rosston,33.588,-93.2869,272
Arkansas,Strawberry,35.9665,-91.3211,268
Arkansas,El Paso,35.1153,-92.0812,267
Arkansas,Horseshoe Lake,34.9138,-90.3077,264
Arkansas,Morrow,35.8563,-94.4306,263
Arkansas,Poyen,34.3242,-92.642,263
Arkansas,Perry,35.0462,-92.7944,262
Arkansas,Lawson,33.2,-92.4879,260
Arkansas,Lynn,36.0043,-91.252,258
Arkansas,Perla,34.3648,-92.7762,257
Arkansas,Almyra,34.4057,-91.4108,256
Arkansas,Etowah,35.7158,-90.2307,254
Arkansas,Chidester,33.7019,-93.0238,253
Arkansas,Shirley,35.6438,-92.3135,248
Arkansas,Scranton,35.3604,-93.5397,245
Arkansas,Montrose,33.2989,-91.4964,243
Arkansas,Edmondson,35.105,-90.3055,243
Arkansas,Payneway,35.5457,-90.5123,241
Arkansas,Letona,35.3635,-91.8295,240
Arkansas,Havana,35.1098,-93.526,239
Arkansas,Fox,35.7844,-92.2996,237
Arkansas,Briarcliff,36.272,-92.2821,236
Arkansas,Pleasant Grove,35.8205,-91.907,235
Arkansas,Black Oak,35.8365,-90.3676,233
Arkansas,Campbell Station,35.6678,-91.2538,232
Arkansas,Perrytown,33.6971,-93.5324,232
Arkansas,Bismarck,34.3218,-93.1781,229
Arkansas,Hickory Ridge,35.4028,-90.9945,228
Arkansas,Midland,35.0924,-94.353,227
Arkansas,Oil Trough,35.6292,-91.4612,226
Arkansas,Springfield,35.2729,-92.555,223
Arkansas,Carthage,34.0726,-92.5553,222
Arkansas,Magness,35.7031,-91.4822,220
Arkansas,Humnoke,34.5422,-91.7597,219
Arkansas,St. Francis,36.4549,-90.1422,218
Arkansas,Poplar Grove,34.5522,-90.8542,215
Arkansas,Widener,35.0235,-90.6819,212
Arkansas,Garner,35.1425,-91.7792,211
Arkansas,Harrell,33.5099,-92.4001,210
Arkansas,Keo,34.6093,-92.0116,207
Arkansas,St. Charles,34.373,-91.1374,207
Arkansas,Lexa,34.5982,-90.7519,207
Arkansas,Denning,35.4252,-93.7568,200
Arkansas,Bethesda,35.7871,-91.7927,199
Arkansas,Garland,33.361,-93.7142,195
Arkansas,Dell,35.8572,-90.0341,194
Arkansas,Pollard,36.4296,-90.2671,193
Arkansas,Sidney,36.0044,-91.6583,192
Arkansas,O'Kean,36.1715,-90.8183,192
Arkansas,Franklin,36.1727,-91.7697,191
Arkansas,Concord,35.6663,-91.8606,190
Arkansas,Watson,33.8937,-91.2571,185
Arkansas,Tollette,33.8181,-93.8969,185
Arkansas,Sunset,35.224,-90.2056,184
Arkansas,Russell,35.3621,-91.5099,184
Arkansas,Valley Springs,36.1538,-92.9897,183
Arkansas,Pyatt,36.2507,-92.8466,181
Arkansas,Wabbaseka,34.3598,-91.7938,180
Arkansas,Oden,34.6231,-93.7836,180
Arkansas,Fisher,35.4914,-90.9726,180
Arkansas,Center Point,34.0318,-93.9512,179
Arkansas,Moro,34.792,-90.988,177
Arkansas,Urbana,33.1585,-92.4454,177
Arkansas,Oak Grove,35.3648,-92.9642,177
Arkansas,Gilmore,35.414,-90.2956,176
Arkansas,Ulm,34.5762,-91.4617,175
Arkansas,Greenway,36.3406,-90.2221,174
Arkansas,Woodlawn,33.9667,-92.0452,174
Arkansas,New Blaine,35.2925,-93.4191,173
Arkansas,Tillar,33.711,-91.4518,172
Arkansas,Parkdale,33.1212,-91.5464,172
Arkansas,West Point,35.2033,-91.6099,170
Arkansas,Newhope,34.2223,-93.8774,169
Arkansas,Ratcliff,35.3069,-93.8886,167
Arkansas,Summers,35.9872,-94.4829,166
Arkansas,Boles,34.7881,-94.0494,166
Arkansas,Buckner,33.3573,-93.4356,165
Arkansas,Sedgwick,35.9742,-90.8621,163
Arkansas,Rondo,34.6574,-90.8208,163
Arkansas,Wesley,36.0325,-93.9186,161
Arkansas,Rover,34.9518,-93.409,159
Arkansas,Friendship,34.2243,-93.0037,158
Arkansas,Fifty-Six,35.9635,-92.2334,158
Arkansas,Gillham,34.1686,-94.313,157
Arkansas,Griffithville,35.1231,-91.645,155
Arkansas,Pineville,36.1611,-92.1065,154
Arkansas,Caulksville,35.3018,-93.8678,154
Arkansas,Louann,33.3915,-92.7922,153
Arkansas,Walcott,36.0461,-90.6705,152
Arkansas,Jacksonport,35.6422,-91.3079,150
Arkansas,Collins,33.5323,-91.5724,149
Arkansas,Adona,35.0399,-92.8991,149
Arkansas,Willisville,33.5161,-93.2937,148
Arkansas,Wayton,35.9194,-93.2596,148
Arkansas,Knobel,36.32,-90.6023,147
Arkansas,Drasco,35.6338,-91.9418,144
Arkansas,Chester,35.6778,-94.1778,144
Arkansas,Mount Vernon,35.2236,-92.124,144
Arkansas,Houston,35.0349,-92.6945,143
Arkansas,Alicia,35.8929,-91.0835,143
Arkansas,Hagarville,35.515,-93.3321,142
Arkansas,Ben Lomond,33.8291,-94.1233,140
Arkansas,Burdette,35.8153,-89.9464,140
Arkansas,Lacey,33.4503,-91.8496,139
Arkansas,Hensley,34.5104,-92.2095,137
Arkansas,Jerusalem,35.4076,-92.823,137
Arkansas,Winchester,33.7741,-91.4737,137
Arkansas,Ivan,33.902,-92.4332,135
Arkansas,Anthonyville,35.0398,-90.3403,135
Arkansas,Deer,35.828,-93.2196,135
Arkansas,Alpine,34.2269,-93.3783,134
Arkansas,McDougal,36.4365,-90.3907,134
Arkansas,New Edinburg,33.7562,-92.2404,134
Arkansas,Staves,34.0336,-92.2806,133
Arkansas,Wilburn,35.5088,-91.8884,132
Arkansas,Hattieville,35.2952,-92.7754,132
Arkansas,Ogden,33.5859,-94.0469,131
Arkansas,Reed,33.7017,-91.4458,130
Arkansas,Rudy,35.5275,-94.2404,130
Arkansas,St. Joe,36.026,-92.8013,129
Arkansas,Crystal Springs,34.5248,-93.3336,129
Arkansas,Omaha,36.4616,-93.19,128
Arkansas,Moorefield,35.7672,-91.5708,126
Arkansas,Saratoga,33.7437,-93.9043,124
Arkansas,Bassett,35.5356,-90.1294,124
Arkansas,Rye,33.7505,-91.9985,123
Arkansas,Mount Holly,33.3072,-92.9502,123
Arkansas,Haynes,34.8909,-90.7927,122
Arkansas,Bodcaw,33.5636,-93.393,121
Arkansas,Dora,35.4629,-94.4297,121
Arkansas,Casa,35.025,-93.0455,120
Arkansas,Ravenden Springs,36.3127,-91.2233,119
Arkansas,Bluff City,33.7351,-93.1246,118
Arkansas,Jennette,35.1581,-90.4188,118
Arkansas,Maysville,36.402,-94.589,117
Arkansas,Winthrop,33.8308,-94.3542,116
Arkansas,Fulton,33.6126,-93.8138,115
Arkansas,Vandervoort,34.3798,-94.3649,115
Arkansas,Higden,35.5664,-92.2052,114
Arkansas,Goodwin,34.9407,-91.0036,113
Arkansas,Egypt,35.8678,-90.9458,113
Arkansas,Antoine,34.0345,-93.4214,113
Arkansas,Uniontown,35.5852,-94.447,112
Arkansas,St. Paul,35.8268,-93.7673,111
Arkansas,Mount Judea,35.9262,-93.0568,110
Arkansas,Floral,35.5889,-91.7589,109
Arkansas,Marie,35.6129,-90.083,108
Arkansas,Fountain Hill,33.3575,-91.8511,108
Arkansas,Aubrey,34.7198,-90.898,108
Arkansas,Peach Orchard,36.2812,-90.6608,105
Arkansas,Everton,36.1541,-92.9095,104
Arkansas,Powhatan,36.0873,-91.1239,104
Arkansas,Hunter,35.0546,-91.1229,103
Arkansas,Lonsdale,34.545,-92.8106,103
Arkansas,Evansville,35.7906,-94.4888,102
Arkansas,Alix,35.422,-93.7288,100
Arkansas,Aplin,34.9675,-92.9813,100
Arkansas,Success,36.4545,-90.7226,98
Arkansas,Jericho,35.2877,-90.2305,98
Arkansas,Kingston,36.0567,-93.5147,97
Arkansas,Alleene,33.7648,-94.2622,97
Arkansas,Scott,34.6977,-92.0939,97
Arkansas,Okolona,34.0005,-93.3376,97
Arkansas,Black Springs,34.456,-93.7131,96
Arkansas,Pindall,36.0637,-92.8622,95
Arkansas,Tucker,34.4395,-91.9519,95
Arkansas,Washington,33.7729,-93.6833,94
Arkansas,Zinc,36.284,-92.9144,92
Arkansas,Ozone,35.6385,-93.4473,92
Arkansas,Gum Springs,34.0639,-93.0957,91
Arkansas,Hindsville,36.1477,-93.8649,90
Arkansas,Big Flat,36.0034,-92.4102,88
Arkansas,Daisy,34.2359,-93.7392,88
Arkansas,Blue Mountain,35.1318,-93.7167,88
Arkansas,Minturn,35.9764,-91.0272,87
Arkansas,Board Camp,34.5325,-94.0797,87
Arkansas,Coy,34.5405,-91.8713,87
Arkansas,Banks,33.5758,-92.2671,87
Arkansas,Smithville,36.0799,-91.3027,87
Arkansas,Allport,34.5399,-91.7839,86
Arkansas,South Lead Hill,36.3956,-92.9062,86
Arkansas,Felsenthal,33.0608,-92.149,85
Arkansas,Beedeville,35.4292,-91.1107,84
Arkansas,Springtown,36.2603,-94.4238,83
Arkansas,Georgetown,35.1267,-91.4539,81
Arkansas,Williford,36.2518,-91.3605,79
Arkansas,Morrison Bluff,35.382,-93.5189,78
Arkansas,Bowman,35.8168,-90.4962,75
Arkansas,Canehill,35.9138,-94.3973,74
Arkansas,Cherokee City,36.2947,-94.5768,73
Arkansas,Cale,33.6279,-93.2328,73
Arkansas,Oakland,36.4604,-92.5718,72
Arkansas,Pencil Bluff,34.6304,-93.735,72
Arkansas,Tupelo,35.3903,-91.2299,70
Arkansas,Nimmons,36.3063,-90.0951,69
Arkansas,Amagon,35.5632,-91.1094,69
Arkansas,Guion,35.9268,-91.9389,68
Arkansas,Roe,34.6311,-91.386,68
Arkansas,Beaver,36.474,-93.7773,67
Arkansas,Datto,36.3925,-90.7285,65
Arkansas,Oakhaven,33.7294,-93.6208,65
Arkansas,Delaplaine,36.2304,-90.7256,64
Arkansas,Patmos,33.5114,-93.567,57
Arkansas,Weldon,35.448,-91.2316,57
Arkansas,Fargo,34.954,-91.1797,57
Arkansas,McCaskill,33.9195,-93.6368,57
Arkansas,Fourche,34.9931,-92.6189,56
Arkansas,Edgemont,35.6007,-92.1964,56
Arkansas,Fair Oaks,35.248,-91.036,55
Arkansas,Waldenburg,35.5653,-90.9346,53
Arkansas,Sherrill,34.3851,-91.9518,53
Arkansas,LaGrange,34.6558,-90.7347,52
Arkansas,Monroe,34.734,-91.1068,51
Arkansas,Wiederkehr Village,35.4777,-93.7647,50
Arkansas,Ozan,33.8466,-93.7208,50
Arkansas,Tinsman,33.6292,-92.3533,50
Arkansas,Warm Springs,36.4831,-91.049,47
Arkansas,Whelen Springs,33.8331,-93.126,47
Arkansas,Blue Eye,36.4967,-93.3977,46
Arkansas,Rivervale,35.6759,-90.3445,46
Arkansas,Corinth,35.0695,-93.4201,45
Arkansas,Halley,33.5363,-91.3237,44
Arkansas,Gregory,35.1533,-91.3342,43
Arkansas,Oark,35.695,-93.575,43
Arkansas,Reader,33.7516,-93.1012,40
Arkansas,Caddo Gap,34.4025,-93.6179,39
Arkansas,Violet Hill,36.1529,-91.8397,36
Arkansas,Beirne,33.8882,-93.2062,36
Arkansas,Gamaliel,36.4519,-92.2369,33
Arkansas,Witts Springs,35.7703,-92.8823,33
Arkansas,Birdsong,35.4612,-90.2598,32
Arkansas,Ponca,36.0293,-93.3624,30
Arkansas,McNab,33.6609,-93.8323,30
Arkansas,Buffalo City,36.1691,-92.4381,26
Arkansas,Gilbert,35.991,-92.7162,26
Arkansas,Jerome,33.3986,-91.4698,24
Arkansas,Mellwood,34.2155,-90.9447,21
Arkansas,Victoria,35.7574,-90.0601,20
Arkansas,Mount Olive,36.0031,-92.0905,17
Arkansas,Indian Bay,34.3871,-91.0696,15
Arkansas,Oneida,34.4605,-90.7867,13
Arkansas,Princeton,33.9775,-92.6242,13
California,Los Angeles,34.0194,-118.4108,3898747
California,San Diego,32.815,-117.1356,1386932
California,San Jose,37.296,-121.8146,1013240
California,San Francisco,37.7272,-123.0322,873965
California,Fresno,36.7827,-119.7934,542107
California,Sacramento,38.5677,-121.4682,524943
California,Long Beach,33.7808,-118.1682,466742
California,Oakland,37.7698,-122.2257,440646
California,Bakersfield,35.3536,-119.0369,403455
California,Anaheim,33.8555,-117.7587,346824
California,Stockton,37.9763,-121.3133,320804
California,Riverside,33.9381,-117.3932,314998
California,Santa Ana,33.7363,-117.8829,310227
California,Irvine,33.6784,-117.7713,307670
California,Chula Vista,32.6277,-117.0152,275487
California,Fremont,37.4945,-121.9411,230504
California,Santa Clarita,34.4141,-118.4947,228673
California,San Bernardino,34.1411,-117.2946,222101
California,Modesto,37.6375,-121.003,218464
California,Moreno Valley,33.9233,-117.2057,208634
California,Fontana,34.109,-117.4629,208393
California,Oxnard,34.1994,-119.2075,202063
California,Huntington Beach,33.698,-118.0038,198711
California,Glendale,34.1814,-118.2458,196543
California,Santa Rosa,38.4458,-122.7062,178127
California,Elk Grove,38.4146,-121.385,176124
California,Ontario,34.0376,-117.6044,175265
California,Rancho Cucamonga,34.1233,-117.5642,174453
California,Oceanside,33.2246,-117.3063,174068
California,Lancaster,34.6936,-118.1753,173516
California,Garden Grove,33.7788,-117.9605,171949
California,Palmdale,34.591,-118.1054,169450
California,Salinas,36.6902,-121.6338,163542
California,Hayward,37.6268,-122.104,162954
California,Corona,33.862,-117.5655,157136
California,Sunnyvale,37.3858,-122.0263,155805
California,Pomona,34.0585,-117.7611,151713
California,Escondido,33.1331,-117.074,151038
California,Roseville,38.7703,-121.3196,147773
California,Torrance,33.8305,-118.3566,147067
California,Fullerton,33.8857,-117.928,143617
California,Visalia,36.328,-119.3285,141384
California,Orange,33.787,-117.8613,139911
California,Pasadena,34.1606,-118.138,138699
California,Victorville,34.5277,-117.3536,134810
California,Santa Clara,37.3646,-121.968,127647
California,Thousand Oaks,34.1933,-118.8742,126966
California,Simi Valley,34.2669,-118.7485,126356
California,Vallejo,38.1069,-122.2623,126090
California,Concord,37.9722,-122.0016,125410
California,Berkeley,37.8657,-122.2987,124321
California,Clovis,36.829,-119.6849,120124
California,Fairfield,38.2621,-122.0324,119881
California,East Los Angeles,34.0315,-118.1686,118786
California,Richmond,37.9523,-122.3606,116448
California,Antioch,37.9783,-121.7961,115291
California,Carlsbad,33.1293,-117.2842,114746
California,Downey,33.9382,-118.1309,114355
California,Costa Mesa,33.6659,-117.9123,111918
California,Murrieta,33.5721,-117.1904,110949
California,San Buenaventura (Ventura),34.2678,-119.2542,110763
California,Temecula,33.4931,-117.1317,110003
California,Santa Maria,34.9331,-120.4436,109707
California,West Covina,34.0559,-117.9099,109501
California,El Monte,34.0746,-118.0291,109450
California,Inglewood,33.9561,-118.3443,107762
California,Burbank,34.1901,-118.3264,107337
California,El Cajon,32.8017,-116.9605,106215
California,San Mateo,37.5603,-122.3106,105661
California,Jurupa Valley,34.0026,-117.4676,105053
California,Daly City,37.6862,-122.4687,104901
California,Rialto,34.1174,-117.3892,104026
California,Norwalk,33.9076,-118.0835,102773
California,Menifee,33.6899,-117.1844,102527
California,Vacaville,38.3586,-121.9686,102386
California,Chico,39.759,-121.8177,101475
California,Hesperia,34.397,-117.3152,99818
California,Vista,33.1896,-117.2386,98381
California,Compton,33.894,-118.2275,95740
California,Carson,33.8404,-118.2496,95558
California,San Marcos,33.1326,-117.1699,94833
California,Arden-Arcade,38.6023,-121.384,94659
California,Mission Viejo,33.6093,-117.6565,93653
California,Redding,40.5674,-122.3648,93611
California,Santa Monica,34.0109,-118.4982,93076
California,Tracy,37.7274,-121.4522,93000
California,South Gate,33.9442,-118.1928,92726
California,Chino,33.978,-117.6577,91403
California,San Leandro,37.7034,-122.163,91008
California,Westminster,33.7523,-117.9939,90911
California,Hemet,33.7341,-116.9969,89833
California,Indio,33.7316,-116.236,89137
California,Santa Barbara,34.4006,-119.713,88665
California,Hawthorne,33.9148,-118.3481,88083
California,Livermore,37.687,-121.7598,87955
California,Citrus Heights,38.6948,-121.288,87583
California,Whittier,33.9668,-118.0201,87306
California,Merced,37.3057,-120.4779,86333
California,Lake Forest,33.6549,-117.6758,85858
California,Newport Beach,33.5971,-117.8903,85239
California,San Ramon,37.7653,-121.932,84605
California,Redwood City,37.5153,-122.2137,84292
California,Buena Park,33.8574,-118.0074,84034
California,Manteca,37.7928,-121.2261,83498
California,Alhambra,34.0836,-118.1364,82868
California,Lakewood,33.8471,-118.1219,82496
California,Mountain View,37.3997,-122.0793,82376
California,Folsom,38.6666,-121.1416,80454
California,Tustin,33.731,-117.8107,80276
California,Milpitas,37.4331,-121.8909,80273
California,Pleasanton,37.6672,-121.8812,79871
California,Carmichael,38.6308,-121.3256,79793
California,Rancho Cordova,38.5771,-121.2362,79332
California,Napa,38.2979,-122.3007,79246
California,Bellflower,33.8878,-118.1273,79190
California,Upland,34.1161,-117.6599,79040
California,Perris,33.7902,-117.2214,78700
California,Chino Hills,33.943,-117.7256,78411
California,Alameda,37.7419,-122.2599,78280
California,Pittsburg,38.0168,-121.8969,76416
California,Apple Valley,34.5334,-117.2104,75791
California,Redlands,34.0535,-117.1705,73168
California,Turlock,37.5046,-120.857,72740
California,Dublin,37.7161,-121.8962,72589
California,Baldwin Park,34.0828,-117.9713,72176
California,Rocklin,38.8069,-121.2497,71601
California,Redondo Beach,33.8568,-118.377,71576
California,Camarillo,34.2218,-119.0322,70741
California,Lake Elsinore,33.686,-117.3354,70265
California,Union City,37.6032,-122.0181,70143
California,Walnut Creek,37.9027,-122.0405,70127
California,Yuba City,39.1386,-121.6397,70117
California,Eastvale,33.9633,-117.5824,69757
California,Tulare,36.1994,-119.3419,68875
California,Palo Alto,37.3965,-122.1431,68572
California,Yorba Linda,33.889,-117.7721,68336
California,Lynwood,33.924,-118.2017,67265
California,Davis,38.5561,-121.7378,66850
California,Castro Valley,37.7083,-122.0628,66441
California,Lodi,38.1216,-121.2908,66348
California,Madera,36.963,-120.0778,66224
California,South San Francisco,37.6551,-122.3762,66105
California,Laguna Niguel,33.5287,-117.7013,64355
California,San Clemente,33.4491,-117.6131,64293
California,Brentwood,37.9356,-121.719,64292
California,La Habra,33.9279,-117.9516,63097
California,Santa Cruz,36.9744,-122.0353,62956
California,Montebello,34.0154,-118.111,62640
California,Porterville,36.0635,-119.0336,62623
California,Pico Rivera,33.9895,-118.0893,62088
California,Encinitas,33.0506,-117.2636,62007
California,Florence-Graham,33.9682,-118.2447,61983
California,San Rafael,37.981,-122.5069,61271
California,La Mesa,32.7695,-117.0219,61121
California,Monterey Park,34.0484,-118.1332,61096
California,Woodland,38.6712,-121.75,61032
California,Gardena,33.8944,-118.3075,61027
California,Cupertino,37.3194,-122.045,60381
California,Santee,32.855,-116.9861,60037
California,Petaluma,38.2423,-122.6288,59776
California,Gilroy,37.0064,-121.5853,59520
California,Hanford,36.3274,-119.6549,57990
California,Fountain Valley,33.7106,-117.9511,57047
California,Highland,34.1135,-117.1657,56999
California,Arcadia,34.1327,-118.0363,56681
California,South Whittier,33.9331,-118.0308,56415
California,National City,32.6652,-117.0988,56173
California,Diamond Bar,34.0016,-117.8176,55072
California,Huntington Park,33.9792,-118.2174,54883
California,Yucaipa,34.0336,-117.0429,54542
California,Hacienda Heights,33.9959,-117.973,54191
California,West Sacramento,38.5544,-121.5487,53915
California,Colton,34.0545,-117.325,53909
California,San Jacinto,33.7989,-116.9959,53898
California,Paramount,33.8989,-118.1666,53733
California,Novato,38.0851,-122.5482,53225
California,Beaumont,33.8767,-116.953,53036
California,Watsonville,36.9196,-121.7702,52590
California,Glendora,34.145,-117.8478,52558
California,Florin,38.4832,-121.4043,52388
California,Aliso Viejo,33.5792,-117.7289,52176
California,Placentia,33.8812,-117.8548,51824
California,Cathedral City,33.8355,-116.4631,51493
California,Delano,35.7664,-119.2642,51428
California,Covina,34.0905,-117.8821,51268
California,Rosemead,34.0689,-118.0827,51185
California,Palm Desert,33.7376,-116.3641,51163
California,El Dorado Hills,38.6761,-121.0477,50547
California,Cypress,33.8185,-118.0383,50151
California,Azusa,34.1385,-117.9123,50000
California,Lincoln,38.8745,-121.2929,49757
California,Cerritos,33.8677,-118.0695,49578
California,North Highlands,38.6713,-121.3721,49327
California,Ceres,37.5988,-120.9681,49302
California,Poway,32.9877,-117.0218,48841
California,Antelope,38.7153,-121.361,48733
California,Rowland Heights,33.9703,-117.8906,48231
California,La Mirada,33.902,-118.009,48008
California,Rancho Santa Margarita,33.6323,-117.599,47949
California,Newark,37.5043,-122.0319,47529
California,Brea,33.9252,-117.8651,47325
California,San Luis Obispo,35.2635,-120.6624,47063
California,Los Banos,37.0632,-120.8403,45532
California,Morgan Hill,37.1325,-121.6419,45483
California,Palm Springs,33.8034,-116.5383,44575
California,Lompoc,34.6627,-120.4708,44444
California,Rohnert Park,38.3476,-122.7009,44390
California,El Centro,32.7864,-115.5602,44322
California,Campbell,37.2802,-121.9533,43959
California,Vineyard,38.474,-121.324,43935
California,San Bruno,37.6256,-122.4314,43908
California,Danville,37.8121,-121.9698,43582
California,Oakley,37.9961,-121.6936,43357
California,Altadena,34.1922,-118.1356,42846
California,Rancho Palos Verdes,33.7385,-118.3697,42287
California,Coachella,33.6905,-116.1431,41941
California,Hollister,36.8556,-121.3986,41678
California,Culver City,34.0058,-118.3968,40779
California,San Gabriel,34.0946,-118.0985,39568
California,Bell Gardens,33.9644,-118.1544,39501
California,Pacifica,37.6066,-122.4772,38640
California,Calexico,32.6849,-115.4944,38633
California,La Puente,34.0323,-117.9535,38062
California,Adelanto,34.5809,-117.4395,38046
California,Stanton,33.8002,-117.9934,37962
California,Monrovia,34.164,-117.9846,37931
California,Montclair,34.0715,-117.6981,37865
California,La Quinta,33.6461,-116.2753,37558
California,Martinez,37.9981,-122.1144,37287
California,Claremont,34.1249,-117.7139,37266
California,Wildomar,33.6173,-117.2582,36875
California,Temple City,34.1022,-118.058,36494
California,Moorpark,34.2859,-118.877,36284
California,Oildale,35.4293,-119.0306,36135
California,Foothill Farms,38.6867,-121.3475,35834
California,West Hollywood,34.0883,-118.3718,35757
California,Orangevale,38.6894,-121.2231,35569
California,Manhattan Beach,33.9009,-118.4207,35506
California,French Valley,33.5995,-117.1065,35280
California,San Juan Capistrano,33.5009,-117.6544,35196
California,La Presa,32.7123,-117.0037,35033
California,San Dimas,34.108,-117.8085,34924
California,Pleasant Hill,37.9542,-122.0758,34613
California,Westmont,33.9417,-118.3018,33913
California,Foster City,37.5648,-122.2508,33805
California,Menlo Park,37.4797,-122.1481,33780
California,Bell,33.9797,-118.1792,33559
California,Los Gatos,37.2299,-121.9568,33529
California,Dana Point,33.4755,-117.6931,33107
California,Beverly Hills,34.0792,-118.4024,32701
California,Goleta,34.4354,-119.8589,32690
California,Fair Oaks,38.6502,-121.251,32514
California,Desert Hot Springs,33.9576,-116.5423,32512
California,Seaside,36.6251,-121.8178,32366
California,Fallbrook,33.3742,-117.2204,32267
California,San Pablo,37.9629,-122.3426,32127
California,Orcutt,34.8692,-120.4217,32034
California,Atwater,37.354,-120.5972,31970
California,Lawndale,33.8884,-118.3531,31807
California,Los Altos,37.3684,-122.0966,31625
California,El Paso de Robles (Paso Robles),35.6285,-120.6504,31490
California,Burlingame,37.59,-122.3633,31386
California,Laguna Hills,33.5912,-117.6976,31374
California,La Verne,34.1205,-117.7699,31334
California,Saratoga,37.2683,-122.0262,31051
California,Spring Valley,32.7299,-116.9764,30998
California,San Carlos,37.499,-122.2676,30722
California,Santa Paula,34.355,-119.0663,30657
California,Monterey,36.6012,-121.8831,30218
California,East Palo Alto,37.4678,-122.1326,30034
California,Atascadero,35.4857,-120.6879,29773
California,San Lorenzo,37.6763,-122.1361,29581
California,Suisun City,38.2483,-122.0101,29518
California,Banning,33.946,-116.8992,29505
California,Lathrop,37.8087,-121.3178,28701
California,Eastern Goleta Valley,34.4439,-119.7855,28656
California,Walnut,34.0372,-117.8556,28430
California,East Niles,35.3683,-118.9225,28390
California,Belmont,37.5144,-122.2945,28335
California,Twentynine Palms,34.1478,-116.066,28065
California,Ridgecrest,35.6285,-117.664,27959
California,Lemon Grove,32.7331,-117.0344,27627
California,Benicia,38.0727,-122.1552,27131
California,Wasco,35.5938,-119.3671,27047
California,Lemoore,36.2949,-119.7983,27038
California,South Pasadena,34.109,-118.1566,26943
California,Sanger,36.699,-119.5575,26617
California,Eureka,40.7934,-124.1552,26512
California,Brawley,32.9784,-115.5287,26416
California,Windsor,38.5421,-122.8086,26344
California,Norco,33.9255,-117.552,26316
California,Temescal Valley,33.758,-117.4672,26232
California,Ladera Ranch,33.5491,-117.6417,26170
California,Imperial Beach,32.5691,-117.1149,26137
California,Hercules,38.0214,-122.2889,26016
California,El Cerrito,37.9196,-122.3025,25962
California,North Tustin,33.7635,-117.7947,25718
California,Barstow,34.867,-117.043,25415
California,Lafayette,37.891,-122.1195,25391
California,Galt,38.2704,-121.3006,25383
California,West Whittier-Los Nietos,33.976,-118.0689,25325
California,Seal Beach,33.7544,-118.0713,25242
California,Reedley,36.5984,-119.4467,25227
California,Maywood,33.9885,-118.1877,25138
California,Soledad,36.4345,-121.3178,24925
California,Riverbank,37.726,-120.9448,24865
California,Loma Linda,34.0453,-117.2502,24791
California,Selma,36.5715,-119.6143,24674
California,Dinuba,36.5453,-119.3987,24563
California,Mountain House,37.7673,-121.5449,24499
California,West Rancho Dominguez,33.9043,-118.2678,24347
California,Bloomington,34.0601,-117.4012,24339
California,Willowbrook,33.9208,-118.2369,24295
California,San Fernando,34.2887,-118.4362,23946
California,Bay Point,38.0323,-121.9622,23896
California,Ashland,37.6942,-122.1159,23823
California,Patterson,37.4759,-121.1539,23781
California,Rosemont,38.5477,-121.3554,23510
California,Calabasas,34.1343,-118.6665,23241
California,Millbrae,37.599,-122.402,23216
California,Oakdale,37.7617,-120.8464,23181
California,Laguna Beach,33.5434,-117.7618,23032
California,West Puente Valley,34.0523,-117.9667,22959
California,West Carson,33.8231,-118.2937,22870
California,Cudahy,33.964,-118.1826,22811
California,East San Gabriel,34.1162,-118.0799,22769
California,Valinda,34.04,-117.9301,22437
California,Winter Gardens,32.8375,-116.9266,22380
California,Marina,36.6803,-121.7894,22359
California,Corcoran,36.0841,-119.5613,22339
California,Port Hueneme,34.1621,-119.2042,21954
California,Rancho San Diego,32.7624,-116.9197,21858
California,American Canyon,38.179,-122.2596,21837
California,Yucca Valley,34.1233,-116.4216,21738
California,Duarte,34.161,-117.9504,21727
California,Linda,39.1241,-121.5422,21654
California,Ramona,33.0458,-116.8775,21468
California,South Lake Tahoe,38.9392,-119.9822,21330
California,Granite Bay,38.7604,-121.1682,21247
California,Lakeside,32.8566,-116.9042,21152
California,Stanford,37.4269,-122.1677,21150
California,Rosamond,34.8656,-118.2148,20961
California,Lomita,33.7933,-118.3175,20921
California,La Cañada Flintridge,34.2097,-118.2001,20573
California,Lennox,33.9381,-118.3585,20323
California,Agoura Hills,34.1489,-118.7639,20299
California,Albany,37.8906,-122.3181,20271
California,Imperial,32.839,-115.572,20263
California,Coronado,32.6576,-117.1565,20192
California,Stevenson Ranch,34.3877,-118.5844,20178
California,Oroville,39.4954,-121.5601,20042
California,La Crescenta-Montrose,34.233,-118.2358,19997
California,Shafter,35.4794,-119.2013,19953
California,South San Jose Hills,34.0123,-117.9044,19855
California,Mead Valley,33.8333,-117.2852,19819
California,Hermosa Beach,33.8698,-118.4053,19728
California,Casa de Oro-Mount Helix,32.764,-116.9688,19576
California,South El Monte,34.0504,-118.0484,19567
California,Orinda,37.8816,-122.1686,19514
California,Arvin,35.1944,-118.8306,19495
California,East Hemet,33.7301,-116.941,19432
California,Santa Fe Springs,33.9336,-118.0626,19219
California,Chowchilla,37.1161,-120.242,19039
California,Pinole,38.0017,-122.3185,19022
California,Dixon,38.4475,-121.8242,18988
California,Castaic,34.4775,-118.6264,18937
California,Greenfield,36.3246,-121.2427,18937
California,Prunedale,36.8117,-121.655,18885
California,Cameron Park,38.674,-120.9883,18881
California,Arcata,40.8623,-124.075,18857
California,Rosedale,35.3886,-119.2057,18639
California,Arroyo Grande,35.1241,-120.5845,18441
California,Blythe,33.6536,-114.6218,18317
California,Nipomo,35.0307,-120.4978,18176
California,Laguna Woods,33.6121,-117.7303,17644
California,Coalinga,36.1331,-120.339,17590
California,El Segundo,33.9104,-118.4251,17272
California,Live Oak,36.986,-121.9804,17038
California,Rancho Mirage,33.7638,-116.4304,16999
California,Bostonia,32.819,-116.9423,16882
California,Moraga,37.8457,-122.1232,16870
California,Truckee,39.3505,-120.1939,16729
California,Susanville,40.4337,-120.6283,16728
California,Clearlake,38.96,-122.6332,16685
California,Ukiah,39.1466,-123.2103,16607
California,Olivehurst,39.0795,-121.5567,16595
California,Fillmore,34.399,-118.9175,16419
California,Artesia,33.8676,-118.0806,16395
California,McKinleyville,40.9516,-124.0774,16262
California,Valle Vista,33.7434,-116.8888,16194
California,Kerman,36.7249,-120.0624,16016
California,Ripon,37.742,-121.1304,16013
California,Parkway,38.4993,-121.452,15962
California,Rio Linda,38.6875,-121.4417,15944
California,Cherryland,37.6792,-122.1038,15808
California,Vincent,34.0983,-117.9238,15714
California,La Palma,33.8506,-118.0396,15581
California,El Sobrante,37.9736,-122.3031,15524
California,Isla Vista,34.4122,-119.8607,15500
California,Woodcrest,33.8789,-117.3686,15378
California,Discovery Bay,37.9081,-121.5972,15358
California,Alamo,37.8548,-122.0136,15314
California,Walnut Park,33.9682,-118.2219,15214
California,East Rancho Dominguez,33.8948,-118.1956,15114
California,Pacific Grove,36.6226,-121.9264,15090
California,California City,35.1466,-117.8693,14973
California,Coto de Caza,33.597,-117.5865,14710
California,Red Bluff,40.1735,-122.2415,14710
California,Alpine,32.8425,-116.7559,14696
California,Parlier,36.6087,-119.5434,14576
California,Lemon Hill,38.5172,-121.4573,14496
California,Los Osos,35.3071,-120.8245,14465
California,Mill Valley,37.9081,-122.5423,14231
California,Livingston,37.3873,-120.7249,14172
California,McFarland,35.6706,-119.2327,14161
California,Hawaiian Gardens,33.8305,-118.0735,14149
California,Lamont,35.2651,-118.916,14049
California,El Sobrante,33.8725,-117.4625,14039
California,North Fair Oaks,37.4754,-122.2035,14027
California,Grass Valley,39.2238,-121.0522,14016
California,Oak Park,34.185,-118.7669,13898
California,Salida,37.7091,-121.0848,13886
California,Phelan,34.4398,-117.5248,13859
California,Auburn,38.8951,-121.0767,13776
California,Avenal,36.0311,-120.1162,13696
California,North Auburn,38.9307,-121.0811,13452
California,Palos Verdes Estates,33.7743,-118.4258,13347
California,King City,36.2163,-121.132,13332
California,Avocado Heights,34.039,-117.9982,13317
